fips,County_Name,State,Country,Lat,Long_,Combined_Key,1,2,3,4,5,6,7,8,9,10,11,12,13,14,15,16,17,18,19,20,21,22,23,24,25,26,27,28,29,30,31,32,33,34,35,36,37,38,39,40,41,42,43,44,45,46,47,48,49,50,51,52,53,54,55,56,57,58,59,60,61,62,63,64,65,66,67,68,69,70,71,72,73,74,75,76,77,78,79,80,81,82,83,84,85,86,87,88,88
1003,Baldwin,Alabama,US,30.72775,-87.72207,"Baldwin, Alabama, US",0.480522,0.480522,0.480522,0.480522,0.480522,0.9610441,0.9610441,0.9610441,1.441566,1.922088,1.922088,2.40261,2.40261,4.80522,7.207831,8.649397,9.129919,9.610441,11.53253,13.45462,13.93514,13.93514,18.25984,20.18193,21.14297,26.90923,28.3508,31.71445,34.11706,34.59759,41.80542,43.72751,48.53273,49.49377,52.3769,53.81847,56.22108,59.10421,63.42891,68.71465,70.63674,70.63674,77.36405,80.7277,82.16927,83.61083,83.61083,84.09136,86.97449,89.85762,90.33814,90.81867,,,,,,,,,,,,,,,,,,,,,,,,,,,,,,,,,,,,,
1005,Barbour,Alabama,US,31.86826,-85.38713,"Barbour, Alabama, US",3.878675,7.75735,7.75735,7.75735,11.63603,11.63603,15.5147,34.90808,34.90808,38.78675,38.78675,42.66543,46.5441,54.30145,58.18013,69.81615,77.5735,85.33085,108.6029,112.4816,116.3603,124.1176,124.1176,127.9963,135.7536,143.511,143.511,151.2683,162.9044,166.783,174.5404,174.5404,182.2977,,,,,,,,,,,,,,,,,,,,,,,,,,,,,,,,,,,,,,,,,,,,,,,,,,,,,,,,
1007,Bibb,Alabama,US,32.99642,-87.12511,"Bibb, Alabama, US",8.878235,13.31735,13.31735,17.75647,17.75647,17.75647,22.19559,31.07382,35.51294,39.95206,39.95206,48.83029,57.70853,71.02588,75.465,75.465,79.90412,97.66059,106.5388,115.4171,124.2953,142.0518,142.0518,150.93,146.4909,150.93,150.93,168.6865,186.4429,186.4429,186.4429,186.4429,186.4429,186.4429,190.8821,186.4429,190.8821,,,,,,,,,,,,,,,,,,,,,,,,,,,,,,,,,,,,,,,,,,,,,,,,,,,,
1009,Blount,Alabama,US,33.98211,-86.56791,"Blount, Alabama, US",1.734756,3.469512,6.939023,8.673779,8.673779,8.673779,8.673779,8.673779,10.40854,15.6128,17.34756,17.34756,17.34756,17.34756,17.34756,19.08231,20.81707,20.81707,22.55183,24.28658,27.75609,29.49085,31.22561,34.69512,34.69512,36.42987,38.16463,45.10365,50.30792,53.77743,53.77743,53.77743,58.9817,58.9817,58.9817,62.45121,64.18597,67.65548,69.39023,69.39023,69.39023,69.39023,,,,,,,,,,,,,,,,,,,,,,,,,,,,,,,,,,,,,,,,,,,,,,,
1011,Bullock,Alabama,US,32.10031,-85.71266,"Bullock, Alabama, US",19.31994,19.31994,28.97991,28.97991,28.97991,28.97991,28.97991,19.31994,19.31994,19.31994,19.31994,19.31994,19.31994,28.97991,28.97991,38.63988,38.63988,38.63988,48.29985,77.27975,77.27975,77.27975,77.27975,86.93972,86.93972,106.2597,106.2597,106.2597,115.9196,115.9196,115.9196,115.9196,115.9196,115.9196,115.9196,125.5796,135.2396,135.2396,135.2396,154.5595,173.8794,,,,,,,,,,,,,,,,,,,,,,,,,,,,,,,,,,,,,,,,,,,,,,,,
1013,Butler,Alabama,US,31.753,-86.68057,"Butler, Alabama, US",4.993758,4.993758,4.993758,4.993758,4.993758,4.993758,4.993758,4.993758,4.993758,4.993758,4.993758,4.993758,4.993758,9.987516,9.987516,14.98127,14.98127,29.96255,34.9563,39.95006,39.95006,44.94382,54.93134,79.90012,64.91885,69.91261,69.91261,74.90637,84.89388,94.8814,104.8689,104.8689,159.8002,169.7878,224.7191,249.6879,264.6692,324.5943,459.4257,524.3446,569.2884,599.2509,,,,,,,,,,,,,,,,,,,,,,,,,,,,,,,,,,,,,,,,,,,,,,,
1015,Calhoun,Alabama,US,33.77484,-85.8263,"Calhoun, Alabama, US",0.8688248,0.8688248,0.8688248,0.8688248,0.8688248,1.73765,1.73765,1.73765,1.73765,2.606474,2.606474,2.606474,6.950599,7.819423,9.557073,10.4259,15.63885,18.24532,19.98297,29.54004,35.62182,42.57242,46.04772,46.91654,49.52302,51.26066,52.99831,53.86714,53.86714,53.86714,54.73596,57.34244,61.68656,69.50599,72.11246,73.85011,76.45658,77.32541,77.32541,79.06306,78.19423,79.93188,80.80071,81.66953,80.80071,85.14483,91.22661,91.22661,99.04603,,,,,,,,,,,,,,,,,,,,,,,,,,,,,,,,,,,,,,,,
1017,Chambers,Alabama,US,32.9136,-85.39073,"Chambers, Alabama, US",2.956306,5.912612,2.956306,5.912612,5.912612,14.78153,29.56306,38.43198,38.43198,50.2572,79.82026,97.55809,106.427,124.1648,198.0725,236.5045,257.1986,263.1112,277.8927,298.5869,322.2373,446.4022,496.6594,535.0913,585.3485,626.7368,638.5621,653.3436,682.9066,697.6882,709.5134,724.2949,759.7706,765.6832,798.2026,812.9841,833.6782,833.6782,842.5472,854.3724,860.285,866.1976,872.1102,857.3287,869.1539,886.8917,892.8044,898.717,,,,,,,,,,,,,,,,,,,,,,,,,,,,,,,,,,,,,,,,,
1019,Cherokee,Alabama,US,34.17806,-85.60639,"Cherokee, Alabama, US",3.868023,3.868023,3.868023,3.868023,7.736046,7.736046,7.736046,7.736046,15.47209,19.34012,23.20814,23.20814,23.20814,23.20814,27.07616,27.07616,27.07616,27.07616,30.94418,34.81221,34.81221,34.81221,42.54825,46.41628,46.41628,46.41628,46.41628,50.2843,50.2843,46.41628,46.41628,46.41628,54.15232,54.15232,58.02035,58.02035,58.02035,58.02035,58.02035,61.88837,61.88837,65.75639,,,,,,,,,,,,,,,,,,,,,,,,,,,,,,,,,,,,,,,,,,,,,,,
1021,Chilton,Alabama,US,32.85044,-86.71733,"Chilton, Alabama, US",2.276349,9.105395,13.65809,15.93444,15.93444,22.76349,25.03984,29.59253,31.86888,34.14523,34.14523,34.14523,43.25063,45.52697,45.52697,56.90872,59.18507,68.29046,68.29046,75.11951,75.11951,79.67221,84.2249,84.2249,88.7776,93.3303,97.883,100.1593,104.712,106.9884,111.5411,111.5411,116.0938,116.0938,118.3701,120.6465,120.6465,118.3701,122.9228,129.7519,132.0282,136.5809,,,,,,,,,,,,,,,,,,,,,,,,,,,,,,,,,,,,,,,,,,,,,,,
1023,Choctaw,Alabama,US,32.02227,-88.26564,"Choctaw, Alabama, US",7.648184,7.648184,7.648184,7.648184,15.29637,22.94455,30.59273,30.59273,30.59273,30.59273,38.24092,38.24092,45.8891,45.8891,45.8891,45.8891,61.18547,76.48184,76.48184,91.7782,91.7782,99.42639,99.42639,107.0746,107.0746,130.0191,137.6673,160.6119,168.26,191.2046,191.2046,244.7419,298.2792,298.2792,298.2792,328.8719,374.761,374.761,374.761,390.0574,413.0019,,,,,,,,,,,,,,,,,,,,,,,,,,,,,,,,,,,,,,,,,,,,,,,,
1025,Clarke,Alabama,US,31.681,-87.83549,"Clarke, Alabama, US",8.201091,12.30164,24.60327,32.80436,36.90491,41.00545,41.00545,49.20654,53.30709,61.50818,77.91036,77.91036,86.11145,86.11145,98.41309,98.41309,98.41309,98.41309,98.41309,98.41309,102.5136,102.5136,98.41309,98.41309,102.5136,110.7147,114.8153,123.0164,131.2175,139.4185,155.8207,172.2229,176.3235,176.3235,,,,,,,,,,,,,,,,,,,,,,,,,,,,,,,,,,,,,,,,,,,,,,,,,,,,,,,
1027,Clay,Alabama,US,33.26984,-85.85836,"Clay, Alabama, US",7.474959,7.474959,7.474959,14.94992,14.94992,14.94992,14.94992,14.94992,44.84975,59.79967,59.79967,67.27463,67.27463,67.27463,74.74959,82.22455,82.22455,89.69951,104.6494,104.6494,104.6494,104.6494,104.6494,104.6494,127.0743,134.5493,142.0242,142.0242,142.0242,142.0242,142.0242,142.0242,142.0242,142.0242,142.0242,156.9741,156.9741,156.9741,156.9741,164.4491,164.4491,179.399,,,,,,,,,,,,,,,,,,,,,,,,,,,,,,,,,,,,,,,,,,,,,,,
1031,Coffee,Alabama,US,31.39933,-85.98901,"Coffee, Alabama, US",1.949774,1.949774,9.748869,13.64842,13.64842,15.59819,15.59819,15.59819,25.34706,27.29683,33.14616,60.44299,70.19186,70.19186,77.99095,91.63937,99.43847,107.2376,115.0367,124.7855,132.5846,142.3335,155.9819,169.6303,169.6303,185.2285,191.0778,204.7263,208.6258,216.4249,228.1235,230.0733,253.4706,261.2697,261.2697,,,,,,,,,,,,,,,,,,,,,,,,,,,,,,,,,,,,,,,,,,,,,,,,,,,,,,
1033,Colbert,Alabama,US,34.69847,-87.80169,"Colbert, Alabama, US",1.835031,1.835031,1.835031,1.835031,3.670061,7.340123,7.340123,7.340123,9.175154,9.175154,9.175154,11.01018,11.01018,12.84522,12.84522,12.84522,14.68025,14.68025,16.51528,18.35031,20.18534,20.18534,22.02037,23.8554,27.52546,29.36049,29.36049,29.36049,36.70061,40.37068,42.20571,42.20571,42.20571,42.20571,49.54583,49.54583,53.21589,60.55601,67.89614,75.23626,75.23626,77.07129,,,,,,,,,,,,,,,,,,,,,,,,,,,,,,,,,,,,,,,,,,,,,,,
1035,Conecuh,Alabama,US,31.43402,-86.9932,"Conecuh, Alabama, US",7.99105,7.99105,15.9821,15.9821,15.9821,15.9821,31.9642,31.9642,23.97315,23.97315,39.95525,39.95525,39.95525,39.95525,63.9284,63.9284,79.9105,79.9105,71.91945,71.91945,71.91945,71.91945,71.91945,71.91945,71.91945,71.91945,71.91945,71.91945,71.91945,71.91945,71.91945,71.91945,71.91945,71.91945,,,,,,,,,,,,,,,,,,,,,,,,,,,,,,,,,,,,,,,,,,,,,,,,,,,,,,,
1039,Covington,Alabama,US,31.24779,-86.45051,"Covington, Alabama, US",2.677304,5.354609,5.354609,5.354609,5.354609,8.031913,8.031913,10.70922,10.70922,10.70922,10.70922,13.38652,24.09574,26.77304,26.77304,29.45035,34.80496,34.80496,42.83687,45.51418,48.19148,50.86879,56.22339,58.9007,64.25531,69.60992,72.28722,77.64183,82.99644,82.99644,88.35105,91.02835,93.70566,96.38296,96.38296,101.7376,115.1241,120.4787,120.4787,123.156,,,,,,,,,,,,,,,,,,,,,,,,,,,,,,,,,,,,,,,,,,,,,,,,,
1041,Crenshaw,Alabama,US,31.72942,-86.31593,"Crenshaw, Alabama, US",7.212405,7.212405,7.212405,7.212405,7.212405,7.212405,7.212405,7.212405,14.42481,14.42481,14.42481,14.42481,14.42481,14.42481,14.42481,14.42481,21.63722,21.63722,21.63722,21.63722,36.06203,36.06203,43.27443,43.27443,43.27443,43.27443,43.27443,57.69924,72.12405,72.12405,79.33646,86.54886,115.3985,122.6109,137.0357,137.0357,151.4605,165.8853,180.3101,187.5225,,,,,,,,,,,,,,,,,,,,,,,,,,,,,,,,,,,,,,,,,,,,,,,,,
1043,Cullman,Alabama,US,34.1302,-86.86888,"Cullman, Alabama, US",2.42975,2.42975,2.42975,3.644625,4.8595,7.28925,7.28925,8.504124,8.504124,9.718999,9.718999,10.93387,10.93387,18.22312,18.22312,18.22312,24.2975,25.51237,26.72725,26.72725,36.44625,37.66112,47.38012,47.38012,48.595,48.595,48.595,64.38837,51.02475,51.02475,53.4545,54.66937,53.4545,53.4545,57.09912,57.09912,60.74375,63.1735,63.1735,66.81812,66.81812,69.24787,69.24787,70.46275,70.46275,70.46275,,,,,,,,,,,,,,,,,,,,,,,,,,,,,,,,,,,,,,,,,,,
1045,Dale,Alabama,US,31.43037,-85.61096,"Dale, Alabama, US",2.030251,2.030251,4.060501,4.060501,8.121003,8.121003,8.121003,12.1815,12.1815,12.1815,16.24201,24.36301,24.36301,24.36301,28.42351,28.42351,34.51426,40.60501,42.63527,42.63527,44.66552,44.66552,46.69577,46.69577,50.75627,50.75627,50.75627,50.75627,54.81677,54.81677,56.84702,69.02853,69.02853,69.02853,,,,,,,,,,,,,,,,,,,,,,,,,,,,,,,,,,,,,,,,,,,,,,,,,,,,,,,
1047,Dallas,Alabama,US,32.32688,-87.10867,"Dallas, Alabama, US",4.996378,4.996378,4.996378,4.996378,4.996378,4.996378,4.996378,4.996378,9.992755,17.48732,17.48732,17.48732,17.48732,17.48732,17.48732,17.48732,27.48008,24.98189,34.97464,34.97464,42.46921,44.9674,52.46197,52.46197,54.96015,62.45472,64.95291,72.44748,74.94566,72.44748,79.94204,79.94204,82.44023,92.43299,92.43299,92.43299,102.4257,104.9239,122.4113,147.3931,162.3823,169.8768,,,,,,,,,,,,,,,,,,,,,,,,,,,,,,,,,,,,,,,,,,,,,,,
1049,DeKalb,Alabama,US,34.45947,-85.80783,"DeKalb, Alabama, US",1.404494,1.404494,5.617978,5.617978,5.617978,5.617978,7.022472,11.23596,14.04494,18.25843,19.66292,19.66292,19.66292,19.66292,21.06742,23.8764,29.49438,36.51685,37.92135,40.73034,40.73034,44.94382,47.75281,56.17978,58.98876,64.60674,71.62921,81.46067,85.67416,85.67416,85.67416,98.31461,103.9326,106.7416,108.1461,108.1461,106.7416,108.1461,110.9551,126.4045,139.0449,,,,,,,,,,,,,,,,,,,,,,,,,,,,,,,,,,,,,,,,,,,,,,,,
1051,Elmore,Alabama,US,32.59785,-86.14415,"Elmore, Alabama, US",1.231345,1.231345,1.231345,2.46269,4.92538,6.156726,6.156726,7.388071,7.388071,7.388071,9.850761,11.08211,12.31345,14.77614,14.77614,16.00749,16.00749,16.00749,17.23883,20.93287,23.39556,23.39556,23.39556,23.39556,27.08959,27.08959,33.24632,35.70901,36.94035,40.63439,43.09708,52.94784,57.87322,66.49264,66.49264,71.41802,77.57474,84.96281,89.88819,91.11954,91.11954,91.11954,91.11954,97.27626,97.27626,100.9703,103.433,105.8957,108.3584,114.5151,126.8285,136.6793,148.9928,,,,,,,,,,,,,,,,,,,,,,,,,,,,,,,,,,,,
1053,Escambia,Alabama,US,31.12568,-87.15919,"Escambia, Alabama, US",2.678954,2.678954,2.678954,2.678954,2.678954,5.357908,5.357908,5.357908,8.036862,8.036862,8.036862,8.036862,13.39477,13.39477,24.11059,21.43163,21.43163,26.78954,24.11059,29.4685,37.50536,32.14745,37.50536,42.86327,45.54222,48.22117,56.25804,58.93699,58.93699,66.97385,69.65281,72.33176,72.33176,75.01072,77.68967,80.36862,83.04758,85.72653,83.04758,,,,,,,,,,,,,,,,,,,,,,,,,,,,,,,,,,,,,,,,,,,,,,,,,,
1055,Etowah,Alabama,US,34.04567,-86.04052,"Etowah, Alabama, US",3.885796,3.885796,5.828695,5.828695,5.828695,7.771593,9.714491,12.62884,18.45753,25.25768,34.00072,39.82941,41.77231,41.77231,47.60101,61.20129,71.88723,72.85868,74.80158,75.77303,75.77303,83.54462,84.51607,90.34477,95.20201,97.14491,105.888,112.6881,116.5739,117.5453,117.5453,121.4311,122.4026,126.2884,135.0314,135.0314,135.0314,136.9743,138.9172,141.8316,147.6603,,,,,,,,,,,,,,,,,,,,,,,,,,,,,,,,,,,,,,,,,,,,,,,,
1057,Fayette,Alabama,US,33.72077,-87.73887,"Fayette, Alabama, US",6.029545,6.029545,6.029545,6.029545,6.029545,6.029545,6.029545,6.029545,6.029545,6.029545,6.029545,12.05909,18.08863,24.11818,24.11818,24.11818,24.11818,24.11818,24.11818,24.11818,24.11818,18.08863,24.11818,24.11818,24.11818,24.11818,24.11818,30.14772,30.14772,30.14772,36.17727,36.17727,36.17727,36.17727,36.17727,36.17727,36.17727,,,,,,,,,,,,,,,,,,,,,,,,,,,,,,,,,,,,,,,,,,,,,,,,,,,,
1059,Franklin,Alabama,US,34.44235,-87.8429,"Franklin, Alabama, US",3.170376,3.170376,6.340752,9.511128,9.511128,9.511128,9.511128,9.511128,9.511128,9.511128,12.6815,15.85188,19.02226,19.02226,19.02226,22.19263,22.19263,25.36301,25.36301,25.36301,31.70376,31.70376,38.04451,44.38526,53.89639,57.06677,53.89639,53.89639,57.06677,57.06677,69.74827,79.2594,101.452,101.452,129.9854,136.3262,139.4965,142.6669,183.8818,247.2893,317.0376,418.4896,431.1711,481.8972,,,,,,,,,,,,,,,,,,,,,,,,,,,,,,,,,,,,,,,,,,,,,
1061,Geneva,Alabama,US,31.09389,-85.83573,"Geneva, Alabama, US",3.774867,3.774867,3.774867,3.774867,3.774867,7.549734,7.549734,7.549734,15.09947,15.09947,15.09947,15.09947,18.87433,22.6492,22.6492,22.6492,30.19894,30.19894,30.19894,33.9738,33.9738,33.9738,37.74867,37.74867,41.52354,41.52354,,,,,,,,,,,,,,,,,,,,,,,,,,,,,,,,,,,,,,,,,,,,,,,,,,,,,,,,,,,,,,,
1063,Greene,Alabama,US,32.85504,-87.95684,"Greene, Alabama, US",11.86803,35.60408,35.60408,35.60408,35.60408,47.47211,47.47211,59.34014,59.34014,71.20817,94.94422,118.6803,118.6803,142.4163,154.2844,166.1524,201.7565,213.6245,213.6245,213.6245,237.3606,284.8327,344.1728,344.1728,379.7769,379.7769,474.7211,486.5891,522.1932,522.1932,545.9293,545.9293,557.7973,593.4014,652.7415,640.8735,652.7415,688.3456,723.9497,723.9497,,,,,,,,,,,,,,,,,,,,,,,,,,,,,,,,,,,,,,,,,,,,,,,,,
1065,Hale,Alabama,US,32.76039,-87.63285,"Hale, Alabama, US",6.71727,6.71727,6.71727,6.71727,20.15181,20.15181,20.15181,26.86908,47.02089,47.02089,47.02089,47.02089,73.88997,100.7591,100.7591,114.1936,120.9109,141.0627,147.7799,154.4972,167.9318,208.2354,228.3872,241.8217,248.539,261.9735,261.9735,275.4081,275.4081,275.4081,288.8426,315.7117,335.8635,349.298,349.298,376.1671,396.3189,,,,,,,,,,,,,,,,,,,,,,,,,,,,,,,,,,,,,,,,,,,,,,,,,,,,
1069,Houston,Alabama,US,31.15198,-85.2994,"Houston, Alabama, US",0.958295,0.958295,1.91659,2.874885,2.874885,3.83318,5.74977,8.624655,8.624655,7.66636,8.624655,11.49954,13.41613,14.37443,21.08249,23.95738,23.95738,28.74885,31.62374,35.45692,42.16498,45.03987,49.83134,51.74793,54.62282,61.33088,60.37259,63.24747,67.08065,69.95554,71.87213,74.74701,72.83042,72.83042,73.78872,75.70531,80.49678,83.37167,86.24655,86.24655,89.12144,91.03803,92.95462,93.91291,,,,,,,,,,,,,,,,,,,,,,,,,,,,,,,,,,,,,,,,,,,,,
1071,Jackson,Alabama,US,34.78144,-85.9975,"Jackson, Alabama, US",1.919607,1.919607,1.919607,1.919607,3.839214,3.839214,7.678427,7.678427,9.598034,9.598034,9.598034,15.35685,15.35685,17.27646,23.03528,23.03528,26.8745,32.63332,34.55292,36.47253,42.23135,42.23135,42.23135,46.07056,49.90978,55.6686,59.50781,61.42742,61.42742,72.94506,72.94506,74.86467,78.70388,80.62349,82.5431,86.38231,86.38231,86.38231,86.38231,88.30192,90.22152,94.06074,94.06074,95.98034,95.98034,95.98034,101.7392,,,,,,,,,,,,,,,,,,,,,,,,,,,,,,,,,,,,,,,,,,
1073,Jefferson,Alabama,US,33.55555,-86.89506,"Jefferson, Alabama, US",0.1515399,0.1515399,0.7576997,2.576179,3.182339,3.788499,5.152358,7.576997,9.243937,10.75934,13.03244,13.79014,19.54865,24.09485,26.82257,29.55029,37.12729,38.49115,40.91579,44.24967,47.58354,53.19052,56.5244,63.04062,64.1014,69.25376,72.58764,76.83075,81.22541,87.74163,90.46935,92.74245,93.95477,94.71247,96.07633,98.65251,101.6833,103.3502,104.2595,105.7749,110.018,117.8981,120.7773,120.7773,127.142,127.142,130.4759,133.3552,134.2644,140.7806,143.3568,146.8422,150.3276,154.5707,,,,,,,,,,,,,,,,,,,,,,,,,,,,,,,,,,,
1077,Lauderdale,Alabama,US,34.90172,-87.65625,"Lauderdale, Alabama, US",1.080089,2.160177,2.160177,3.240266,3.240266,6.480531,9.720797,9.720797,12.96106,12.96106,12.96106,12.96106,12.96106,15.12124,15.12124,17.28142,17.28142,17.28142,19.44159,19.44159,21.60177,21.60177,22.68186,22.68186,23.76195,23.76195,23.76195,23.76195,24.84204,24.84204,24.84204,25.92213,27.00221,27.00221,27.00221,27.00221,27.00221,33.48275,33.48275,32.40266,33.48275,41.04337,54.00443,60.48496,65.8854,68.04558,73.44602,,,,,,,,,,,,,,,,,,,,,,,,,,,,,,,,,,,,,,,,,,
1079,Lawrence,Alabama,US,34.52041,-87.31069,"Lawrence, Alabama, US",9.044044,6.029363,9.044044,9.044044,9.044044,9.044044,9.044044,9.044044,12.05873,12.05873,18.08809,24.11745,24.11745,24.11745,24.11745,24.11745,24.11745,24.11745,24.11745,24.11745,24.11745,24.11745,24.11745,27.13213,27.13213,30.14681,30.14681,36.17618,36.17618,36.17618,36.17618,36.17618,36.17618,36.17618,36.17618,36.17618,39.19086,39.19086,42.20554,42.20554,48.2349,,,,,,,,,,,,,,,,,,,,,,,,,,,,,,,,,,,,,,,,,,,,,,,,
1081,Lee,Alabama,US,32.60155,-85.35132,"Lee, Alabama, US",0.6277976,1.883393,5.022381,6.277976,6.905774,7.533571,10.04476,11.92815,16.32274,25.1119,29.50649,30.13429,35.15667,37.04006,44.57363,47.08482,50.85161,57.12958,62.15196,64.03536,68.42994,70.94113,80.3581,92.91405,124.9317,131.2097,136.8599,148.1602,156.9494,166.3664,168.8776,183.3169,188.9671,191.4783,193.3617,195.2451,200.2674,207.801,213.4512,220.357,220.357,229.1461,231.0295,236.6797,242.3299,247.3523,245.4689,249.2357,251.119,253.0024,256.1414,,,,,,,,,,,,,,,,,,,,,,,,,,,,,,,,,,,,,,
1083,Limestone,Alabama,US,34.81186,-86.9831,"Limestone, Alabama, US",1.074668,1.074668,1.074668,1.074668,1.074668,1.074668,1.074668,1.074668,1.074668,1.074668,4.298672,6.448008,13.97068,15.04535,17.19469,17.19469,21.49336,23.64269,24.71736,26.8667,32.24004,33.31471,33.31471,35.46404,34.38937,34.38937,36.53871,38.68805,38.68805,39.76271,39.76271,39.76271,39.76271,40.83738,42.98672,42.98672,42.98672,42.98672,42.98672,41.91205,42.98672,44.06139,44.06139,44.06139,45.13605,47.28539,47.28539,47.28539,47.28539,47.28539,48.36006,50.50939,51.58406,,,,,,,,,,,,,,,,,,,,,,,,,,,,,,,,,,,,
1087,Macon,Alabama,US,32.3876,-85.69268,"Macon, Alabama, US",5.248242,5.248242,5.248242,5.248242,15.74473,26.24121,26.24121,26.24121,26.24121,31.48945,31.48945,47.23418,47.23418,57.73066,73.47539,78.72363,99.71659,99.71659,110.2131,125.9578,125.9578,131.206,136.4543,141.7025,146.9508,141.7025,152.199,152.199,178.4402,178.4402,183.6885,188.9367,194.1849,194.1849,199.4332,209.9297,209.9297,215.1779,,,,,,,,,,,,,,,,,,,,,,,,,,,,,,,,,,,,,,,,,,,,,,,,,,,
1089,Madison,Alabama,US,34.76327,-86.5507,"Madison, Alabama, US",0.2796733,0.2796733,0.2796733,1.398367,1.957713,2.51706,4.474773,5.87314,5.87314,9.788567,12.02595,13.14465,17.33975,22.09419,25.45027,27.68766,29.3657,31.88276,33.84047,34.95917,37.47623,39.43394,41.951,42.79002,48.38349,49.78185,52.01924,52.29891,52.29891,53.41761,53.41761,55.37532,60.68912,55.09565,55.65499,56.49401,56.77369,57.33304,57.33304,56.49401,56.49401,59.01108,59.8501,62.08748,62.64683,63.48585,62.9265,65.16389,65.44356,66.28258,66.56226,,,,,,,,,,,,,,,,,,,,,,,,,,,,,,,,,,,,,,
1091,Marengo,Alabama,US,32.24768,-87.78796,"Marengo, Alabama, US",5.118231,10.23646,15.35469,25.59116,25.59116,20.47292,20.47292,25.59116,35.82762,40.94585,40.94585,66.537,71.65524,71.65524,71.65524,76.77347,97.24639,107.4829,112.6011,117.7193,117.7193,122.8375,122.8375,127.9558,133.074,153.5469,179.1381,204.7292,194.4928,199.611,199.611,209.8475,220.0839,225.2022,235.4386,250.7933,266.148,286.6209,296.8574,337.8033,348.0397,,,,,,,,,,,,,,,,,,,,,,,,,,,,,,,,,,,,,,,,,,,,,,,,
1093,Marion,Alabama,US,34.13697,-87.88704,"Marion, Alabama, US",3.337227,3.337227,3.337227,3.337227,10.01168,23.36059,23.36059,30.03504,33.37227,33.37227,30.03504,30.03504,36.70949,53.39563,56.73286,56.73286,63.40731,70.08176,76.75622,110.1285,130.1518,140.1635,160.1869,186.8847,193.5592,193.5592,196.8964,203.5708,200.2336,203.5708,210.2453,216.9197,216.9197,223.5942,230.2686,230.2686,246.9548,250.292,253.6292,253.6292,250.292,260.3037,273.6526,276.9898,283.6643,300.3504,,,,,,,,,,,,,,,,,,,,,,,,,,,,,,,,,,,,,,,,,,,
1095,Marshall,Alabama,US,34.36976,-86.30487,"Marshall, Alabama, US",1.051027,3.153082,4.20411,4.20411,5.255137,7.357192,7.357192,6.306164,6.306164,16.81644,17.86747,21.02055,34.6839,40.99007,44.14315,63.06164,72.52089,86.18425,101.9497,107.2048,109.3068,111.4089,119.8171,128.2253,145.0418,156.6031,175.5216,203.8993,253.2976,271.1651,280.6243,280.6243,322.6654,325.8185,328.9716,332.1247,333.1757,344.737,351.0431,359.4514,373.1147,461.401,,,,,,,,,,,,,,,,,,,,,,,,,,,,,,,,,,,,,,,,,,,,,,,
1097,Mobile,Alabama,US,30.78472,-88.20842,"Mobile, Alabama, US",0.241162,0.723486,0.482324,0.482324,0.482324,1.446972,2.41162,4.340916,5.546726,6.993698,9.646481,10.61113,12.54042,13.50507,16.15786,24.83969,27.49247,30.14525,34.48617,48.47357,60.04934,74.51906,86.336,98.3941,109.4876,112.8638,122.7515,132.1568,139.1505,149.7616,153.6202,159.4081,163.9902,172.1897,182.3185,195.3412,203.7819,203.7819,221.1456,227.1746,239.715,249.1204,255.1494,265.0371,282.6419,288.9121,294.7,305.0699,,,,,,,,,,,,,,,,,,,,,,,,,,,,,,,,,,,,,,,,,
1099,Monroe,Alabama,US,31.56729,-87.36995,"Monroe, Alabama, US",4.648568,4.648568,4.648568,4.648568,4.648568,13.9457,23.24284,23.24284,23.24284,23.24284,23.24284,23.24284,27.89141,27.89141,27.89141,27.89141,32.53998,32.53998,32.53998,32.53998,32.53998,37.18855,41.83711,41.83711,41.83711,41.83711,41.83711,51.13425,51.13425,55.78282,51.13425,55.78282,55.78282,60.43139,60.43139,60.43139,60.43139,60.43139,60.43139,,,,,,,,,,,,,,,,,,,,,,,,,,,,,,,,,,,,,,,,,,,,,,,,,,
1101,Montgomery,Alabama,US,32.22068,-86.20969,"Montgomery, Alabama, US",0.4406432,0.4406432,0.4406432,0.8812863,0.8812863,0.8812863,1.321929,1.321929,1.321929,1.321929,1.762573,3.965788,5.728361,7.490934,7.931577,7.931577,9.253506,9.69415,12.77865,15.42251,19.82894,25.99795,27.31988,29.52309,31.28566,32.60759,33.92952,38.7766,40.53917,44.9456,52.43654,59.48683,70.94355,76.67191,86.8067,91.21313,94.73828,99.58535,101.7886,107.9576,111.4827,115.8892,120.7362,120.7362,127.3459,128.6678,133.0742,139.2432,148.4967,156.4283,167.0038,180.2231,193.0017,200.9333,,,,,,,,,,,,,,,,,,,,,,,,,,,,,,,,,,,
1103,Morgan,Alabama,US,34.45501,-86.85476,"Morgan, Alabama, US",1.678951,4.197377,7.555279,7.555279,12.59213,14.27108,14.27108,16.78951,15.95003,17.62899,20.14741,20.14741,22.66584,24.34479,25.18426,26.02374,30.22112,30.22112,31.06059,31.90007,35.25797,34.4185,35.25797,36.93692,38.61587,37.7764,39.45535,40.29482,42.81325,43.65273,41.97377,46.17115,46.17115,53.72643,54.56591,57.08433,57.08433,57.08433,59.60276,61.28171,62.12119,63.80014,65.47909,,,,,,,,,,,,,,,,,,,,,,,,,,,,,,,,,,,,,,,,,,,,,,
1109,Pike,Alabama,US,31.80396,-85.94083,"Pike, Alabama, US",2.993743,5.987486,5.987486,11.97497,11.97497,11.97497,11.97497,14.96872,20.9562,29.93743,29.93743,41.9124,41.9124,41.9124,47.89989,50.89363,53.88738,53.88738,59.87486,62.8686,65.86235,71.84983,80.83106,86.81855,101.7873,110.7685,122.7435,137.7122,158.6684,170.6434,173.6371,173.6371,185.6121,194.5933,194.5933,200.5808,200.5808,206.5683,218.5432,224.5307,236.5057,245.4869,,,,,,,,,,,,,,,,,,,,,,,,,,,,,,,,,,,,,,,,,,,,,,,
1111,Randolph,Alabama,US,33.29527,-85.45709,"Randolph, Alabama, US",4.429875,8.85975,8.85975,8.85975,8.85975,22.14938,26.57925,44.29875,48.72863,48.72863,53.1585,57.58838,66.44813,70.878,97.45725,119.6066,159.4755,177.195,199.3444,199.3444,203.7743,225.9236,225.9236,234.7834,248.073,261.3626,265.7925,256.9328,265.7925,265.7925,265.7925,270.2224,274.6523,274.6523,274.6523,274.6523,327.8108,341.1004,349.9601,363.2498,,,,,,,,,,,,,,,,,,,,,,,,,,,,,,,,,,,,,,,,,,,,,,,,,
1113,Russell,Alabama,US,32.28725,-85.18415,"Russell, Alabama, US",1.717829,1.717829,1.717829,1.717829,1.717829,1.717829,1.717829,1.717829,3.435659,6.871317,6.871317,13.74263,17.17829,20.61395,24.04961,24.04961,34.35659,37.79225,41.2279,46.38139,51.53488,51.53488,54.97054,60.12403,70.431,73.86666,82.45581,82.45581,89.32713,92.76278,91.04496,91.04496,91.04496,91.04496,94.48061,94.48061,97.91627,103.0698,103.0698,104.7876,108.2232,108.2232,,,,,,,,,,,,,,,,,,,,,,,,,,,,,,,,,,,,,,,,,,,,,,,
1115,St. Clair,Alabama,US,33.71902,-86.31029,"St. Clair, Alabama, US",1.145397,1.145397,1.145397,1.145397,1.145397,3.43619,3.43619,4.581587,6.87238,6.87238,10.30857,12.59936,14.89016,14.89016,17.18095,20.61714,21.76254,26.34412,28.63492,29.78031,35.5073,34.3619,34.3619,41.23428,42.37968,43.52507,48.10666,49.25206,51.54285,53.83364,56.12444,59.56063,60.70602,61.85142,65.28761,67.5784,71.01459,71.01459,72.15999,72.15999,73.30539,77.88697,80.17777,80.17777,82.46856,83.61396,83.61396,87.05015,87.05015,87.05015,,,,,,,,,,,,,,,,,,,,,,,,,,,,,,,,,,,,,,,
1117,Shelby,Alabama,US,33.2688,-86.66233,"Shelby, Alabama, US",1.420044,1.893393,1.893393,4.260133,4.733481,7.57357,8.046918,10.41366,12.7804,19.88062,24.6141,31.24098,34.08107,37.3945,37.3945,41.65464,41.65464,46.38812,51.59495,58.69517,65.79539,69.58218,74.78901,75.26235,80.46918,87.09606,91.35619,100.3498,108.8701,111.2368,112.1835,115.0236,117.3903,121.6505,126.8573,129.224,129.224,131.5908,133.9575,139.1644,139.1644,147.2113,150.5247,150.9981,151.4714,151.4714,151.4714,153.3648,154.7848,155.2582,158.5716,,,,,,,,,,,,,,,,,,,,,,,,,,,,,,,,,,,,,,
1119,Sumter,Alabama,US,32.59117,-88.19916,"Sumter, Alabama, US",7.701194,15.40239,30.80477,53.90836,46.20716,46.20716,61.60955,115.5179,123.2191,130.9203,138.6215,146.3227,154.0239,161.7251,200.231,215.6334,238.737,254.1394,269.5418,277.243,308.0477,338.8525,354.2549,361.9561,392.7609,392.7609,408.1633,423.5657,423.5657,431.2668,492.8764,523.6812,554.4859,592.9919,623.7967,654.6015,,,,,,,,,,,,,,,,,,,,,,,,,,,,,,,,,,,,,,,,,,,,,,,,,,,,,
1121,Talladega,Alabama,US,33.37823,-86.16886,"Talladega, Alabama, US",1.241234,1.241234,1.241234,1.241234,1.241234,2.482468,3.723701,4.964935,4.964935,4.964935,4.964935,6.206169,8.688637,8.688637,9.92987,13.65357,19.85974,21.10097,24.82468,24.82468,27.30714,35.99578,39.71948,39.71948,42.20195,47.16688,47.16688,47.16688,49.64935,52.13182,54.61429,57.09675,58.33799,62.06169,64.54416,65.78539,67.02662,67.02662,70.75033,71.99156,73.23279,73.23279,75.71526,75.71526,79.43896,80.6802,79.43896,83.16266,,,,,,,,,,,,,,,,,,,,,,,,,,,,,,,,,,,,,,,,,
1123,Tallapoosa,Alabama,US,32.86698,-85.79833,"Tallapoosa, Alabama, US",2.460872,4.921744,9.843489,9.843489,9.843489,12.30436,19.68698,19.68698,29.53047,31.99134,41.83483,46.75657,49.21744,71.36529,73.82616,81.20878,86.13052,110.7392,130.4262,150.1132,241.1655,248.5481,302.6873,312.5308,388.8178,393.7395,440.4961,479.8701,474.9483,561.0788,595.5311,625.0615,642.2876,642.2876,674.279,676.7398,686.5833,693.9659,701.3486,703.8094,713.6529,725.9573,733.3399,745.6443,,,,,,,,,,,,,,,,,,,,,,,,,,,,,,,,,,,,,,,,,,,,,
1125,Tuscaloosa,Alabama,US,33.28726,-87.52557,"Tuscaloosa, Alabama, US",0.4849355,0.969871,1.454806,1.454806,1.454806,1.939742,1.939742,2.909613,3.394548,4.364419,4.849355,7.274032,9.213774,10.18365,10.66858,11.15352,11.63845,14.06313,14.54806,16.48781,19.88235,20.85223,21.33716,35.40029,37.34003,40.24964,41.21952,44.12913,48.00861,57.70732,58.67719,59.16213,62.07174,64.01148,73.71019,68.3759,70.31564,74.19513,76.61981,80.01435,83.89384,88.25826,88.25826,93.10761,94.56242,96.50216,97.95697,100.8666,101.8365,104.7461,105.7159,114.9297,117.8393,,,,,,,,,,,,,,,,,,,,,,,,,,,,,,,,,,,,
1127,Walker,Alabama,US,33.80271,-87.30027,"Walker, Alabama, US",1.550556,1.550556,1.550556,1.550556,4.651668,7.752779,13.955,26.35945,35.66279,43.41556,46.51668,46.51668,49.61779,49.61779,52.7189,74.42668,75.97724,75.97724,83.73002,97.68502,100.7861,106.9884,111.64,120.9434,125.595,130.2467,130.2467,130.2467,130.2467,128.6961,128.6961,131.7972,139.55,141.1006,139.55,137.9995,137.9995,137.9995,142.6511,144.2017,145.7523,147.3028,148.8534,150.4039,150.4039,153.505,155.0556,155.0556,,,,,,,,,,,,,,,,,,,,,,,,,,,,,,,,,,,,,,,,,
1129,Washington,Alabama,US,31.40928,-88.2069,"Washington, Alabama, US",6.008532,6.008532,6.008532,6.008532,6.008532,6.008532,12.01706,12.01706,12.01706,24.03413,24.03413,18.0256,18.0256,18.0256,30.04266,30.04266,30.04266,30.04266,42.05972,42.05972,66.09385,66.09385,72.10239,72.10239,72.10239,72.10239,72.10239,78.11092,84.11945,90.12798,96.13651,96.13651,102.145,108.1536,108.1536,114.1621,114.1621,156.2218,162.2304,198.2816,204.2901,204.2901,210.2986,222.3157,228.3242,228.3242,252.3583,,,,,,,,,,,,,,,,,,,,,,,,,,,,,,,,,,,,,,,,,,
1131,Wilcox,Alabama,US,31.98773,-87.30891,"Wilcox, Alabama, US",9.25155,18.5031,18.5031,18.5031,18.5031,18.5031,27.75465,27.75465,46.25775,55.5093,101.767,111.0186,111.0186,120.2701,120.2701,148.0248,166.5279,222.0372,277.5465,286.798,286.798,314.5527,360.8104,370.062,416.3197,434.8228,453.3259,453.3259,462.5775,481.0806,490.3321,490.3321,518.0868,536.5899,555.093,573.5961,610.6023,619.8538,656.86,666.1116,666.1116,666.1116,,,,,,,,,,,,,,,,,,,,,,,,,,,,,,,,,,,,,,,,,,,,,,,
1133,Winston,Alabama,US,34.15031,-87.37326,"Winston, Alabama, US",8.376963,8.376963,8.376963,8.376963,8.376963,8.376963,8.376963,12.56545,12.56545,12.56545,12.56545,12.56545,12.56545,12.56545,16.75393,16.75393,16.75393,16.75393,16.75393,16.75393,29.31937,37.69634,37.69634,37.69634,37.69634,41.88482,41.88482,41.88482,41.88482,41.88482,46.0733,46.0733,54.45026,54.45026,62.82723,62.82723,67.01571,67.01571,67.01571,67.01571,,,,,,,,,,,,,,,,,,,,,,,,,,,,,,,,,,,,,,,,,,,,,,,,,
2020,Anchorage,Alaska,US,61.14998,-149.1427,"Anchorage,Alaska,US",0.3377101,0.3377101,0.3377101,0.3377101,0.6754201,1.35084,1.35084,1.35084,1.68855,4.390231,5.741071,5.741071,9.455882,10.1313,14.52153,18.23634,19.92489,20.60031,21.95115,22.62657,24.65283,27.35451,28.70535,29.71848,33.09559,34.78414,36.8104,37.82353,40.86292,42.88918,44.24002,45.92857,46.9417,48.29254,50.65651,50.99422,52.00735,52.34506,54.03361,55.38445,56.05987,56.73529,56.73529,56.73529,57.74842,59.09926,60.4501,60.4501,62.47636,62.47636,63.15178,63.8272,64.16491,,,,,,,,,,,,,,,,,,,,,,,,,,,,,,,,,,,,
2170,Matanuska-Susitna,Alaska,US,62.31305,-149.5742,"Matanuska-Susitna,Alaska,US",1.93304,1.93304,1.93304,2.899559,2.899559,3.866079,3.866079,3.866079,3.866079,3.866079,3.866079,4.832599,5.799119,8.698678,9.665198,13.53128,13.53128,14.4978,14.4978,14.4978,14.4978,16.43084,17.39736,18.36388,18.36388,19.3304,19.3304,19.3304,19.3304,19.3304,20.29691,20.29691,20.29691,20.29691,20.29691,20.29691,20.29691,20.29691,20.29691,,,,,,,,,,,,,,,,,,,,,,,,,,,,,,,,,,,,,,,,,,,,,,,,,,
4001,Apache,Arizona,US,35.39465,-109.4892,"Apache, Arizona, US",4.194514,4.194514,5.592685,5.592685,9.787198,12.58354,15.37988,18.17623,18.17623,23.76891,22.37074,23.76891,23.76891,23.76891,27.96342,32.15794,34.95428,39.14879,47.53782,72.7049,76.89942,92.2793,100.6683,124.4372,135.6226,153.7988,164.9842,197.1421,236.2909,248.8745,282.4306,315.9867,328.5702,374.7099,413.8587,439.0258,469.7855,506.138,531.3051,548.0831,627.7789,668.3258,708.8728,735.438,767.596,805.3466,,,,,,,,,,,,,,,,,,,,,,,,,,,,,,,,,,,,,,,,,,,
4003,Cochise,Arizona,US,31.87935,-109.7516,"Cochise, Arizona, US",0.7918973,0.7918973,0.7918973,0.7918973,0.7918973,0.7918973,1.583795,1.583795,2.375692,2.375692,3.167589,3.167589,3.167589,3.167589,3.959487,5.543281,6.335178,7.127076,7.127076,7.127076,8.71087,8.71087,10.29466,11.87846,12.67036,11.87846,11.87846,14.25415,15.83795,17.42174,19.00554,22.17312,22.96502,24.54882,24.54882,26.92451,28.5083,28.5083,28.5083,29.3002,30.0921,30.88399,30.88399,30.88399,30.88399,30.88399,30.88399,,,,,,,,,,,,,,,,,,,,,,,,,,,,,,,,,,,,,,,,,,
4009,Graham,Arizona,US,32.93167,-109.8882,"Graham, Arizona, US",2.639985,2.639985,2.639985,2.639985,2.639985,2.639985,2.639985,2.639985,5.27997,5.27997,5.27997,5.27997,5.27997,10.55994,5.27997,5.27997,5.27997,5.27997,5.27997,5.27997,5.27997,7.919956,5.27997,5.27997,5.27997,5.27997,5.27997,5.27997,5.27997,5.27997,5.27997,5.27997,5.27997,5.27997,5.27997,5.27997,5.27997,5.27997,5.27997,5.27997,10.55994,18.4799,15.83991,18.4799,23.75987,23.75987,26.39985,42.23976,44.87975,44.87975,47.51973,47.51973,50.15972,,,,,,,,,,,,,,,,,,,,,,,,,,,,,,,,,,,,
4012,La Paz,Arizona,US,33.72854,-113.981,"La Paz, Arizona, US",9.661369,9.661369,9.661369,9.661369,9.661369,9.661369,9.661369,9.661369,9.661369,9.661369,14.49205,14.49205,14.49205,14.49205,19.32274,19.32274,19.32274,19.32274,19.32274,19.32274,24.15342,24.15342,24.15342,24.15342,24.15342,24.15342,28.98411,28.98411,28.98411,38.64548,33.81479,33.81479,33.81479,33.81479,38.64548,67.62958,72.46027,67.62958,67.62958,67.62958,77.29095,,,,,,,,,,,,,,,,,,,,,,,,,,,,,,,,,,,,,,,,,,,,,,,,
4013,Maricopa,Arizona,US,33.34836,-112.4918,"Maricopa, Arizona, US",0.02350777,0.02350777,0.02350777,0.02350777,0.02350777,0.02350777,0.02350777,0.02350777,0.02350777,0.02350777,0.02350777,0.02350777,0.02350777,0.02350777,0.02350777,0.02350777,0.02350777,0.02350777,0.02350777,0.02350777,0.02350777,0.02350777,0.02350777,0.02350777,0.02350777,0.02350777,0.02350777,0.02350777,0.02350777,0.02350777,0.02350777,0.02350777,0.02350777,0.02350777,0.02350777,0.02350777,0.02350777,0.02350777,0.02350777,0.02350777,0.04701554,0.04701554,0.04701554,0.04701554,0.04701554,0.0705233,0.0705233,0.0705233,0.09403107,0.09403107,0.1880621,0.2115699,0.2585854,0.5171709,0.7992641,1.151881,1.904129,3.26758,4.678046,5.90045,7.028823,9.379599,10.67253,12.81173,16.22036,18.52412,20.47527,22.59097,24.65965,27.5276,31.1713,33.68663,35.14411,36.64861,39.70462,40.92702,44.45319,46.07523,47.48569,48.33197,50.44767,53.22159,56.51267,58.55785,60.86161,61.96648,64.36427,66.90311,69.81807
4017,Navajo,Arizona,US,35.39977,-110.3219,"Navajo, Arizona, US",0.9199209,1.839842,2.759763,2.759763,9.199209,11.95897,22.99802,29.43747,34.03707,39.5566,45.07612,52.43549,57.03509,80.95304,83.7128,93.83193,118.6698,136.1483,162.826,179.3846,193.1834,204.2224,220.781,263.0974,264.0173,295.2946,308.1735,317.3727,326.5719,358.7691,377.1676,400.1656,415.8042,422.2437,435.1226,446.1616,484.7983,518.8354,536.3139,562.9916,574.9506,577.7103,611.7474,627.386,654.9837,681.6614,704.6594,714.7785,735.9367,799.4113,,,,,,,,,,,,,,,,,,,,,,,,,,,,,,,,,,,,,,,
4019,Pima,Arizona,US,32.09713,-111.789,"Pima, Arizona, US",0.09806594,0.09806594,0.09806594,0.09806594,0.1961319,0.1961319,0.3922638,0.3922638,0.4903297,0.6864616,0.7845275,1.176791,1.667121,2.353583,4.11877,4.805231,7.354946,10.00273,11.76791,15.00409,18.33833,19.80932,21.28031,23.24163,27.45846,31.9695,36.48053,40.69737,40.69737,45.5026,50.20976,53.24981,57.95697,60.99702,65.50805,67.17517,68.64616,74.53012,80.31601,83.94445,89.53421,92.28005,94.4375,95.41816,100.6157,103.9499,106.8919,111.4029,114.1488,116.5023,119.1501,121.6998,124.2496,127.4857,130.0354,131.9968,135.2329,,,,,,,,,,,,,,,,,,,,,,,,,,,,,,,,
4021,Pinal,Arizona,US,32.90526,-111.3449,"Pinal, Arizona, US",0.476507,0.476507,0.476507,0.7147605,1.191268,1.191268,1.191268,1.191268,1.191268,1.191268,1.191268,1.906028,2.382535,2.382535,3.335549,3.812056,4.05031,5.241577,5.479831,8.338873,8.577126,9.768394,12.15093,15.24822,14.77172,15.48648,16.43949,18.34552,21.20456,24.54011,25.25487,28.59042,29.54343,32.64073,32.87898,34.78501,38.83532,40.02659,41.69436,43.36214,46.93594,50.50974,55.98957,58.84862,60.9929,63.85194,67.42574,72.19081,75.52636,79.10016,81.4827,85.53301,86.96253,92.20411,94.58664,99.35171,103.6403,108.6436,111.5026,113.8852,,,,,,,,,,,,,,,,,,,,,,,,,,,,,
4023,Santa Cruz,Arizona,US,31.52509,-110.8479,"Santa Cruz, Arizona, US",2.14666,2.14666,2.14666,2.14666,2.14666,2.14666,4.29332,4.29332,4.29332,4.29332,4.29332,4.29332,6.439979,6.439979,6.439979,8.586639,8.586639,8.586639,10.7333,12.87996,15.02662,15.02662,17.17328,17.17328,21.4666,21.4666,25.75992,30.05324,30.05324,34.34656,40.78654,42.9332,49.37318,60.10647,60.10647,64.39979,64.39979,64.39979,64.39979,66.54645,66.54645,70.83977,70.83977,72.98643,72.98643,72.98643,75.13309,,,,,,,,,,,,,,,,,,,,,,,,,,,,,,,,,,,,,,,,,,
4025,Yavapai,Arizona,US,34.59934,-112.5539,"Yavapai, Arizona, US",0.4451468,0.4451468,1.33544,1.33544,1.33544,1.780587,2.225734,4.006321,5.786908,5.341761,6.677202,9.348083,10.68352,15.13499,15.58014,19.14131,20.03161,21.81219,25.37337,25.81851,27.5991,27.5991,28.04425,28.04425,28.93454,31.16028,29.37969,30.26998,30.71513,32.05057,32.05057,31.60542,32.05057,32.49572,33.38601,33.38601,33.83116,33.83116,34.2763,34.2763,35.1666,35.1666,36.50204,38.72777,39.61806,41.39865,56.0885,,,,,,,,,,,,,,,,,,,,,,,,,,,,,,,,,,,,,,,,,,
4027,Yuma,Arizona,US,32.76896,-113.9067,"Yuma, Arizona, US",0.4811648,0.4811648,0.4811648,0.9623296,0.9623296,1.443494,1.924659,1.924659,1.924659,2.405824,2.886989,4.330483,5.773978,6.255142,6.255142,6.736307,6.255142,6.255142,6.255142,6.736307,7.217472,7.698637,7.217472,9.623296,9.623296,9.623296,9.623296,11.54796,13.47261,13.95378,13.95378,14.91611,15.39727,20.20892,20.20892,20.20892,25.50173,28.38872,29.83222,32.23804,34.64387,40.89901,42.82367,42.82367,47.15415,55.33395,55.33395,,,,,,,,,,,,,,,,,,,,,,,,,,,,,,,,,,,,,,,,,,
5001,Arkansas,Arkansas,US,34.29145,-91.37277,"Arkansas, Arkansas, US",5.517546,5.517546,5.517546,5.517546,5.517546,5.517546,5.517546,5.517546,5.517546,5.517546,11.03509,11.03509,11.03509,11.03509,11.03509,11.03509,11.03509,11.03509,11.03509,11.03509,11.03509,11.03509,11.03509,11.03509,11.03509,11.03509,11.03509,11.03509,11.03509,11.03509,11.03509,11.03509,11.03509,11.03509,16.55264,16.55264,11.03509,,,,,,,,,,,,,,,,,,,,,,,,,,,,,,,,,,,,,,,,,,,,,,,,,,,,
5003,Ashley,Arkansas,US,33.19153,-91.76985,"Ashley, Arkansas, US",4.86926,4.86926,4.86926,4.86926,4.86926,4.86926,4.86926,4.86926,4.86926,24.3463,24.3463,38.95408,43.82334,48.6926,48.6926,53.56186,53.56186,53.56186,53.56186,53.56186,53.56186,53.56186,58.43112,58.43112,63.30038,63.30038,63.30038,63.30038,63.30038,63.30038,63.30038,63.30038,73.03891,77.90817,77.90817,77.90817,77.90817,73.03891,,,,,,,,,,,,,,,,,,,,,,,,,,,,,,,,,,,,,,,,,,,,,,,,,,,
5005,Baxter,Arkansas,US,36.28784,-92.33783,"Baxter, Arkansas, US",2.426066,2.426066,2.426066,2.426066,2.426066,2.426066,2.426066,2.426066,2.426066,2.426066,2.426066,2.426066,9.704263,9.704263,9.704263,9.704263,9.704263,9.704263,9.704263,9.704263,9.704263,12.13033,12.13033,12.13033,12.13033,12.13033,12.13033,12.13033,12.13033,12.13033,12.13033,12.13033,12.13033,12.13033,12.13033,12.13033,12.13033,12.13033,12.13033,,,,,,,,,,,,,,,,,,,,,,,,,,,,,,,,,,,,,,,,,,,,,,,,,,
5007,Benton,Arkansas,US,36.33645,-94.25681,"Benton, Arkansas, US",0.3861302,0.3861302,0.3861302,0.3861302,6.950344,8.880995,10.81165,11.97004,13.51456,14.67295,15.05908,15.44521,16.21747,16.21747,16.6036,16.21747,16.21747,17.37586,18.14812,18.14812,18.14812,18.53425,19.30651,23.16781,23.94007,23.55394,23.94007,23.94007,23.94007,23.94007,25.48459,26.25685,27.02911,29.73203,30.50429,35.91011,36.29624,36.29624,38.99915,39.38528,41.31593,43.24658,43.24658,43.24658,42.47432,,,,,,,,,,,,,,,,,,,,,,,,,,,,,,,,,,,,,,,,,,,,
5009,Boone,Arkansas,US,36.30845,-93.09375,"Boone, Arkansas, US",2.681828,2.681828,2.681828,2.681828,2.681828,2.681828,2.681828,2.681828,2.681828,2.681828,2.681828,2.681828,2.681828,2.681828,2.681828,2.681828,2.681828,2.681828,8.045484,8.045484,8.045484,8.045484,8.045484,8.045484,8.045484,8.045484,8.045484,8.045484,8.045484,8.045484,8.045484,10.72731,10.72731,10.72731,10.72731,13.40914,13.40914,13.40914,13.40914,13.40914,13.40914,10.72731,10.72731,10.72731,10.72731,,,,,,,,,,,,,,,,,,,,,,,,,,,,,,,,,,,,,,,,,,,,
5011,Bradley,Arkansas,US,33.46756,-92.15981,"Bradley, Arkansas, US",9.134088,36.53635,36.53635,36.53635,36.53635,36.53635,36.53635,36.53635,36.53635,36.53635,36.53635,36.53635,36.53635,36.53635,36.53635,36.53635,45.67044,45.67044,54.80453,54.80453,54.80453,63.93862,63.93862,63.93862,63.93862,63.93862,63.93862,63.93862,63.93862,63.93862,63.93862,63.93862,63.93862,63.93862,63.93862,73.07271,73.07271,73.07271,100.475,109.6091,109.6091,100.475,100.475,100.475,100.475,,,,,,,,,,,,,,,,,,,,,,,,,,,,,,,,,,,,,,,,,,,,
5015,Carroll,Arkansas,US,36.34039,-93.5427,"Carroll, Arkansas, US",3.5859,3.5859,3.5859,3.5859,3.5859,3.5859,3.5859,7.1718,7.1718,7.1718,7.1718,7.1718,7.1718,7.1718,7.1718,7.1718,7.1718,7.1718,7.1718,7.1718,7.1718,7.1718,10.7577,14.3436,14.3436,14.3436,17.9295,17.9295,17.9295,17.9295,21.5154,21.5154,21.5154,21.5154,,,,,,,,,,,,,,,,,,,,,,,,,,,,,,,,,,,,,,,,,,,,,,,,,,,,,,,
5017,Chicot,Arkansas,US,33.26459,-91.29539,"Chicot, Arkansas, US",9.237022,9.237022,9.237022,9.237022,9.237022,18.47404,18.47404,18.47404,18.47404,18.47404,18.47404,18.47404,18.47404,36.94809,36.94809,46.18511,46.18511,46.18511,64.65915,64.65915,64.65915,64.65915,64.65915,64.65915,64.65915,64.65915,64.65915,64.65915,64.65915,73.89618,83.1332,83.1332,83.1332,83.1332,83.1332,83.1332,83.1332,83.1332,83.1332,83.1332,,,,,,,,,,,,,,,,,,,,,,,,,,,,,,,,,,,,,,,,,,,,,,,,,
5019,Clark,Arkansas,US,34.04613,-93.17485,"Clark, Arkansas, US",4.467277,31.27094,26.80366,53.60733,67.00916,75.94371,80.41099,75.94371,93.81282,107.2147,107.2147,116.1492,120.6165,120.6165,120.6165,120.6165,120.6165,120.6165,120.6165,120.6165,120.6165,120.6165,116.1492,116.1492,120.6165,120.6165,120.6165,120.6165,120.6165,120.6165,120.6165,120.6165,120.6165,125.0838,129.551,125.0838,120.6165,120.6165,120.6165,134.0183,134.0183,138.4856,138.4856,142.9529,142.9529,,,,,,,,,,,,,,,,,,,,,,,,,,,,,,,,,,,,,,,,,,,,
5021,Clay,Arkansas,US,36.36826,-90.41482,"Clay, Arkansas, US",6.639665,6.639665,6.639665,6.639665,6.639665,6.639665,6.639665,6.639665,6.639665,6.639665,6.639665,6.639665,6.639665,6.639665,6.639665,6.639665,6.639665,6.639665,13.27933,13.27933,13.27933,19.919,19.919,19.919,19.919,19.919,19.919,19.919,19.919,,,,,,,,,,,,,,,,,,,,,,,,,,,,,,,,,,,,,,,,,,,,,,,,,,,,,,,,,,,,
5023,Cleburne,Arkansas,US,35.53865,-92.0264,"Cleburne, Arkansas, US",11.89061,107.0155,126.8331,158.5414,186.2862,194.2132,198.1768,198.1768,221.958,241.7757,245.7392,249.7027,253.6663,257.6298,253.6663,257.6298,261.5933,265.5569,273.4839,273.4839,273.4839,277.4475,277.4475,277.4475,277.4475,277.4475,277.4475,277.4475,277.4475,281.411,281.411,281.411,281.411,285.3746,285.3746,285.3746,285.3746,285.3746,289.3381,289.3381,289.3381,289.3381,289.3381,289.3381,285.3746,,,,,,,,,,,,,,,,,,,,,,,,,,,,,,,,,,,,,,,,,,,,
5027,Columbia,Arkansas,US,33.21231,-93.22643,"Columbia, Arkansas, US",4.185501,4.185501,4.185501,4.185501,4.185501,4.185501,4.185501,4.185501,4.185501,4.185501,4.185501,4.185501,4.185501,4.185501,4.185501,4.185501,4.185501,4.185501,12.5565,12.5565,12.5565,12.5565,12.5565,12.5565,16.74201,16.74201,16.74201,16.74201,20.92751,20.92751,20.92751,20.92751,20.92751,25.11301,25.11301,25.11301,37.66951,50.22602,50.22602,54.41152,54.41152,54.41152,54.41152,54.41152,54.41152,,,,,,,,,,,,,,,,,,,,,,,,,,,,,,,,,,,,,,,,,,,,
5029,Conway,Arkansas,US,35.26206,-92.70507,"Conway, Arkansas, US",4.783316,4.783316,4.783316,4.783316,4.783316,4.783316,4.783316,4.783316,4.783316,4.783316,4.783316,4.783316,4.783316,4.783316,4.783316,4.783316,4.783316,4.783316,19.13326,19.13326,19.13326,19.13326,19.13326,19.13326,23.91658,23.91658,23.91658,23.91658,23.91658,23.91658,23.91658,23.91658,38.26653,47.83316,47.83316,52.61647,57.39979,57.39979,62.18311,62.18311,62.18311,62.18311,62.18311,62.18311,62.18311,,,,,,,,,,,,,,,,,,,,,,,,,,,,,,,,,,,,,,,,,,,,
5031,Craighead,Arkansas,US,35.83018,-90.63236,"Craighead, Arkansas, US",0.9460648,3.784259,3.784259,3.784259,3.784259,3.784259,3.784259,5.676389,5.676389,7.568519,10.40671,11.35278,13.24491,15.13704,17.02917,18.9213,20.81343,21.75949,26.48982,27.43588,29.32801,29.32801,34.05833,34.05833,35.95046,37.84259,37.84259,39.73472,40.68079,41.62685,42.57292,45.41111,52.03357,54.87176,58.65602,58.65602,64.33241,66.22454,69.06273,70.0088,75.68519,76.63125,76.63125,79.46945,80.41551,,,,,,,,,,,,,,,,,,,,,,,,,,,,,,,,,,,,,,,,,,,,
5033,Crawford,Arkansas,US,35.58929,-94.24468,"Crawford, Arkansas, US",1.600717,1.600717,1.600717,1.600717,1.600717,1.600717,1.600717,1.600717,1.600717,1.600717,1.600717,1.600717,1.600717,1.600717,1.600717,1.600717,1.600717,4.802151,4.802151,4.802151,4.802151,6.402868,6.402868,6.402868,6.402868,6.402868,6.402868,6.402868,6.402868,6.402868,6.402868,6.402868,6.402868,6.402868,6.402868,6.402868,6.402868,6.402868,6.402868,6.402868,8.003586,8.003586,8.003586,6.402868,,,,,,,,,,,,,,,,,,,,,,,,,,,,,,,,,,,,,,,,,,,,,
5035,Crittenden,Arkansas,US,35.21247,-90.30839,"Crittenden, Arkansas, US",2.040275,2.040275,2.040275,12.24165,14.28193,18.36248,28.56385,34.68468,34.68468,34.68468,59.16798,65.2888,75.49018,87.73183,102.0138,108.1346,118.336,124.4568,150.9804,175.4637,181.5845,189.7456,210.1483,236.6719,246.8733,248.9136,259.1149,271.3566,283.5982,289.7191,295.8399,299.9204,318.2829,340.7259,344.8065,348.887,355.0079,361.1287,367.2495,381.5314,383.5717,393.7731,401.9342,399.8939,401.9342,,,,,,,,,,,,,,,,,,,,,,,,,,,,,,,,,,,,,,,,,,,,
5037,Cross,Arkansas,US,35.29631,-90.77186,"Cross, Arkansas, US",5.883045,5.883045,5.883045,5.883045,5.883045,5.883045,5.883045,5.883045,5.883045,5.883045,5.883045,29.41523,29.41523,29.41523,29.41523,29.41523,35.29827,35.29827,35.29827,35.29827,41.18132,41.18132,41.18132,41.18132,47.06436,47.06436,47.06436,47.06436,47.06436,52.94741,64.7135,64.7135,64.7135,94.12872,94.12872,94.12872,94.12872,100.0118,123.5439,123.5439,141.1931,147.0761,147.0761,,,,,,,,,,,,,,,,,,,,,,,,,,,,,,,,,,,,,,,,,,,,,,
5039,Dallas,Arkansas,US,33.97043,-92.65167,"Dallas, Arkansas, US",13.45533,13.45533,13.45533,13.45533,13.45533,13.45533,13.45533,13.45533,13.45533,13.45533,13.45533,13.45533,13.45533,13.45533,13.45533,13.45533,13.45533,13.45533,13.45533,13.45533,13.45533,13.45533,13.45533,13.45533,13.45533,13.45533,13.45533,13.45533,13.45533,13.45533,,,,,,,,,,,,,,,,,,,,,,,,,,,,,,,,,,,,,,,,,,,,,,,,,,,,,,,,,,,
5041,Desha,Arkansas,US,33.83011,-91.25501,"Desha, Arkansas, US",16.8251,16.8251,16.8251,16.8251,16.8251,16.8251,16.8251,16.8251,16.8251,16.8251,16.8251,16.8251,16.8251,42.06276,42.06276,42.06276,42.06276,42.06276,50.47531,50.47531,50.47531,50.47531,50.47531,50.47531,50.47531,50.47531,50.47531,58.88786,58.88786,58.88786,75.71296,117.7757,134.6008,134.6008,134.6008,134.6008,134.6008,134.6008,134.6008,134.6008,134.6008,134.6008,134.6008,134.6008,,,,,,,,,,,,,,,,,,,,,,,,,,,,,,,,,,,,,,,,,,,,,
5043,Drew,Arkansas,US,33.59035,-91.71778,"Drew, Arkansas, US",5.404821,5.404821,5.404821,5.404821,5.404821,5.404821,5.404821,5.404821,5.404821,5.404821,5.404821,27.02411,27.02411,27.02411,27.02411,27.02411,32.42893,32.42893,32.42893,32.42893,32.42893,32.42893,32.42893,32.42893,32.42893,32.42893,32.42893,37.83375,54.04821,70.26267,70.26267,70.26267,70.26267,70.26267,75.6675,86.47714,86.47714,81.07232,86.47714,86.47714,86.47714,,,,,,,,,,,,,,,,,,,,,,,,,,,,,,,,,,,,,,,,,,,,,,,,
5045,Faulkner,Arkansas,US,35.14719,-92.33718,"Faulkner, Arkansas, US",1.633773,8.168867,11.43641,18.78839,19.60528,22.05594,23.68971,24.5066,24.5066,29.40792,29.40792,30.22481,32.67547,32.67547,37.57679,38.39367,42.47811,44.92877,44.92877,45.74565,46.56254,48.19631,46.56254,47.37943,47.37943,48.19631,48.19631,49.0132,50.64697,50.64697,50.64697,52.28075,54.73141,54.73141,57.18207,59.63273,61.2665,61.2665,62.08339,62.08339,62.08339,62.08339,62.90027,62.90027,62.90027,,,,,,,,,,,,,,,,,,,,,,,,,,,,,,,,,,,,,,,,,,,,
5047,Franklin,Arkansas,US,35.51203,-93.893,"Franklin, Arkansas, US",5.624297,5.624297,5.624297,5.624297,5.624297,5.624297,5.624297,11.24859,5.624297,5.624297,5.624297,5.624297,5.624297,5.624297,5.624297,5.624297,5.624297,5.624297,5.624297,5.624297,11.24859,11.24859,11.24859,11.24859,11.24859,11.24859,11.24859,11.24859,11.24859,,,,,,,,,,,,,,,,,,,,,,,,,,,,,,,,,,,,,,,,,,,,,,,,,,,,,,,,,,,,
5049,Fulton,Arkansas,US,36.38177,-91.81729,"Fulton, Arkansas, US",8.237911,8.237911,8.237911,8.237911,8.237911,8.237911,8.237911,8.237911,8.237911,8.237911,8.237911,8.237911,24.71373,,,,,,,,,,,,,,,,,,,,,,,,,,,,,,,,,,,,,,,,,,,,,,,,,,,,,,,,,,,,,,,,,,,,,,,,,,,,
5051,Garland,Arkansas,US,34.57692,-93.14922,"Garland, Arkansas, US",3.052006,9.156019,10.17335,16.27737,18.31204,20.34671,20.34671,25.43338,26.45072,31.5374,32.55473,37.64141,37.64141,40.69342,41.71075,41.71075,46.79743,51.88411,62.05746,67.14414,73.24815,82.40417,102.7509,103.7682,104.7855,106.8202,108.8549,107.8376,108.8549,109.8722,110.8896,110.8896,110.8896,111.9069,112.9242,112.9242,115.9762,116.9936,116.9936,118.0109,119.0282,119.0282,120.0456,119.0282,119.0282,,,,,,,,,,,,,,,,,,,,,,,,,,,,,,,,,,,,,,,,,,,,
5055,Greene,Arkansas,US,36.11735,-90.55833,"Greene, Arkansas, US",2.240997,2.240997,2.240997,2.240997,2.240997,2.240997,2.240997,2.240997,2.240997,2.240997,2.240997,2.240997,2.240997,2.240997,2.240997,2.240997,2.240997,13.44598,13.44598,13.44598,13.44598,13.44598,13.44598,13.44598,13.44598,13.44598,13.44598,20.16897,17.92797,17.92797,20.16897,22.40997,29.13296,31.37396,31.37396,35.85595,35.85595,35.85595,35.85595,35.85595,35.85595,35.85595,42.57894,42.57894,47.06093,,,,,,,,,,,,,,,,,,,,,,,,,,,,,,,,,,,,,,,,,,,,
5057,Hempstead,Arkansas,US,33.73326,-93.66935,"Hempstead, Arkansas, US",4.541739,4.541739,4.541739,4.541739,4.541739,4.541739,4.541739,4.541739,4.541739,4.541739,4.541739,4.541739,4.541739,4.541739,13.62522,13.62522,18.16695,22.70869,22.70869,18.16695,18.16695,18.16695,18.16695,18.16695,22.70869,22.70869,22.70869,22.70869,22.70869,22.70869,22.70869,22.70869,22.70869,27.25043,27.25043,27.25043,27.25043,27.25043,27.25043,31.79217,31.79217,,,,,,,,,,,,,,,,,,,,,,,,,,,,,,,,,,,,,,,,,,,,,,,,
5059,Hot Spring,Arkansas,US,34.31709,-92.95396,"Hot Spring, Arkansas, US",2.983294,2.983294,2.983294,2.983294,2.983294,2.983294,2.983294,2.983294,14.91647,14.91647,14.91647,20.88305,20.88305,20.88305,20.88305,23.86635,23.86635,23.86635,23.86635,23.86635,23.86635,23.86635,23.86635,23.86635,23.86635,23.86635,23.86635,23.86635,23.86635,26.84964,26.84964,26.84964,29.83294,29.83294,44.7494,47.7327,56.68258,56.68258,56.68258,59.66587,59.66587,59.66587,,,,,,,,,,,,,,,,,,,,,,,,,,,,,,,,,,,,,,,,,,,,,,,
5061,Howard,Arkansas,US,34.09007,-93.99349,"Howard, Arkansas, US",7.468818,7.468818,7.468818,7.468818,7.468818,7.468818,7.468818,7.468818,37.34409,37.34409,37.34409,37.34409,37.34409,44.81291,44.81291,59.75054,67.21936,67.21936,74.68818,89.62581,89.62581,89.62581,104.5634,104.5634,104.5634,104.5634,97.09463,97.09463,97.09463,97.09463,97.09463,97.09463,97.09463,97.09463,97.09463,97.09463,97.09463,104.5634,104.5634,,,,,,,,,,,,,,,,,,,,,,,,,,,,,,,,,,,,,,,,,,,,,,,,,,
5063,Independence,Arkansas,US,35.74243,-91.57002,"Independence, Arkansas, US",2.683555,8.050666,8.050666,8.050666,8.050666,8.050666,8.050666,8.050666,8.050666,8.050666,8.050666,8.050666,8.050666,8.050666,13.41778,13.41778,13.41778,13.41778,13.41778,13.41778,13.41778,13.41778,16.10133,16.10133,16.10133,16.10133,18.78489,18.78489,21.46844,21.46844,21.46844,21.46844,21.46844,24.152,24.152,24.152,24.152,24.152,24.152,24.152,26.83555,26.83555,26.83555,29.51911,29.51911,,,,,,,,,,,,,,,,,,,,,,,,,,,,,,,,,,,,,,,,,,,,
5065,Izard,Arkansas,US,36.09604,-91.90848,"Izard, Arkansas, US",7.375175,7.375175,7.375175,7.375175,7.375175,7.375175,14.75035,14.75035,14.75035,14.75035,14.75035,14.75035,14.75035,14.75035,14.75035,14.75035,14.75035,22.12553,22.12553,36.87588,36.87588,36.87588,36.87588,36.87588,44.25105,44.25105,66.37658,66.37658,73.75175,,,,,,,,,,,,,,,,,,,,,,,,,,,,,,,,,,,,,,,,,,,,,,,,,,,,,,,,,,,,
5069,Jefferson,Arkansas,US,34.26767,-91.9262,"Jefferson, Arkansas, US",4.259911,4.259911,4.259911,4.259911,4.259911,4.259911,4.259911,4.259911,12.77973,29.81938,29.81938,31.23935,32.65932,32.65932,35.49926,35.49926,36.91923,46.85903,59.63876,69.57855,72.41849,75.25843,83.77826,88.03817,97.97796,110.7577,127.7973,129.2173,129.2173,134.8972,141.997,149.0969,150.5169,154.7768,160.4567,161.8766,167.5565,178.9163,178.9163,191.696,201.6358,205.8957,211.5756,217.2555,227.1953,230.0352,238.555,239.975,251.3348,252.7547,261.2746,276.8942,282.5741,,,,,,,,,,,,,,,,,,,,,,,,,,,,,,,,,,,,
5071,Johnson,Arkansas,US,35.56759,-93.46036,"Johnson, Arkansas, US",3.803583,3.803583,3.803583,3.803583,3.803583,22.8215,26.62508,26.62508,26.62508,30.42866,41.83941,41.83941,41.83941,45.643,49.44658,49.44658,49.44658,72.26808,60.85733,68.46449,76.07166,79.87524,83.67883,83.67883,83.67883,83.67883,98.89316,98.89316,98.89316,110.3039,114.1075,110.3039,110.3039,117.9111,117.9111,117.9111,117.9111,117.9111,117.9111,,,,,,,,,,,,,,,,,,,,,,,,,,,,,,,,,,,,,,,,,,,,,,,,,,
5075,Lawrence,Arkansas,US,36.04188,-91.10867,"Lawrence, Arkansas, US",5.99916,5.99916,5.99916,5.99916,5.99916,5.99916,5.99916,5.99916,5.99916,5.99916,5.99916,5.99916,5.99916,5.99916,5.99916,5.99916,53.99244,53.99244,59.9916,65.99076,65.99076,65.99076,65.99076,71.98992,143.9798,149.979,155.9782,155.9782,155.9782,173.9756,221.9689,227.9681,245.9656,251.9647,257.9639,269.9622,275.9614,353.9504,353.9504,359.9496,395.9446,401.9437,401.9437,,,,,,,,,,,,,,,,,,,,,,,,,,,,,,,,,,,,,,,,,,,,,,
5083,Logan,Arkansas,US,35.21413,-93.71951,"Logan, Arkansas, US",4.596222,4.596222,4.596222,4.596222,9.192444,9.192444,9.192444,9.192444,9.192444,9.192444,9.192444,13.78867,13.78867,13.78867,13.78867,13.78867,13.78867,13.78867,13.78867,13.78867,13.78867,13.78867,13.78867,13.78867,13.78867,13.78867,13.78867,13.78867,9.192444,,,,,,,,,,,,,,,,,,,,,,,,,,,,,,,,,,,,,,,,,,,,,,,,,,,,,,,,,,,,
5091,Miller,Arkansas,US,33.31403,-93.89285,"Miller, Arkansas, US",2.285244,15.99671,18.28195,18.28195,18.28195,18.28195,29.70817,36.56391,43.41964,45.70488,50.27537,50.27537,54.84586,63.98684,63.98684,66.27208,66.27208,66.27208,66.27208,68.55733,68.55733,68.55733,70.84257,73.12781,73.12781,73.12781,75.41306,75.41306,75.41306,77.6983,77.6983,77.6983,79.98355,79.98355,79.98355,,,,,,,,,,,,,,,,,,,,,,,,,,,,,,,,,,,,,,,,,,,,,,,,,,,,,,
5093,Mississippi,Arkansas,US,35.76271,-90.05194,"Mississippi, Arkansas, US",2.334758,2.334758,2.334758,2.334758,2.334758,2.334758,14.00855,14.00855,16.3433,16.3433,16.3433,16.3433,16.3433,18.67806,18.67806,18.67806,18.67806,21.01282,21.01282,21.01282,23.34758,23.34758,25.68233,25.68233,30.35185,32.68661,35.02136,44.36039,46.69515,46.69515,46.69515,53.69942,95.72506,,,,,,,,,,,,,,,,,,,,,,,,,,,,,,,,,,,,,,,,,,,,,,,,,,,,,,,,
5103,Ouachita,Arkansas,US,33.5884,-92.87796,"Ouachita, Arkansas, US",4.148345,4.148345,4.148345,4.148345,4.148345,20.74172,20.74172,20.74172,20.74172,20.74172,20.74172,20.74172,20.74172,20.74172,20.74172,20.74172,20.74172,20.74172,20.74172,20.74172,20.74172,20.74172,20.74172,24.89007,24.89007,24.89007,24.89007,29.03841,29.03841,29.03841,29.03841,29.03841,,,,,,,,,,,,,,,,,,,,,,,,,,,,,,,,,,,,,,,,,,,,,,,,,,,,,,,,,
5107,Phillips,Arkansas,US,34.43268,-90.848,"Phillips, Arkansas, US",5.253756,5.253756,5.253756,5.253756,10.50751,15.76127,15.76127,15.76127,21.01503,21.01503,21.01503,21.01503,21.01503,21.01503,21.01503,21.01503,21.01503,21.01503,21.01503,21.01503,21.01503,21.01503,26.26878,26.26878,26.26878,26.26878,26.26878,26.26878,31.52254,31.52254,26.26878,,,,,,,,,,,,,,,,,,,,,,,,,,,,,,,,,,,,,,,,,,,,,,,,,,,,,,,,,,
5113,Polk,Arkansas,US,34.48255,-94.22729,"Polk, Arkansas, US",4.959579,4.959579,4.959579,4.959579,4.959579,4.959579,4.959579,4.959579,4.959579,4.959579,4.959579,24.7979,24.7979,24.7979,24.7979,24.7979,24.7979,29.75748,29.75748,29.75748,29.75748,29.75748,29.75748,29.75748,29.75748,29.75748,34.71706,34.71706,34.71706,34.71706,34.71706,34.71706,34.71706,34.71706,34.71706,34.71706,39.67664,39.67664,39.67664,39.67664,39.67664,34.71706,39.67664,39.67664,34.71706,,,,,,,,,,,,,,,,,,,,,,,,,,,,,,,,,,,,,,,,,,,,
5115,Pope,Arkansas,US,35.44871,-93.03212,"Pope, Arkansas, US",1.57124,1.57124,1.57124,1.57124,1.57124,1.57124,1.57124,1.57124,1.57124,7.8562,9.42744,9.42744,12.56992,12.56992,17.28364,20.42612,26.71108,31.4248,36.13852,36.13852,40.85224,47.1372,48.70844,48.70844,48.70844,51.85092,51.85092,54.9934,54.9934,54.9934,54.9934,54.9934,58.13588,58.13588,58.13588,64.42084,65.99208,65.99208,67.56332,67.56332,67.56332,69.13456,69.13456,69.13456,70.7058,,,,,,,,,,,,,,,,,,,,,,,,,,,,,,,,,,,,,,,,,,,,
5119,Pulaski,Arkansas,US,34.77054,-92.31355,"Pulaski, Arkansas, US",1.016614,15.50336,16.26582,19.82397,21.09474,22.36551,23.38212,23.63628,23.89043,25.92366,27.19442,29.22765,33.03996,34.81903,39.9021,40.91871,44.47686,45.49348,53.37224,57.18454,63.28422,65.0633,69.38391,75.48359,87.17465,90.22449,91.49526,93.52849,95.81587,98.61156,99.11987,102.678,108.5235,111.8275,119.7063,121.4854,123.0103,124.5352,127.0768,131.6515,133.9389,136.9887,139.7844,140.0386,143.5967,,,,,,,,,,,,,,,,,,,,,,,,,,,,,,,,,,,,,,,,,,,,
5121,Randolph,Arkansas,US,36.34157,-91.02456,"Randolph, Arkansas, US",5.68085,5.68085,5.68085,5.68085,5.68085,5.68085,5.68085,5.68085,5.68085,5.68085,5.68085,5.68085,5.68085,34.0851,39.76595,39.76595,45.4468,45.4468,45.4468,45.4468,51.12765,51.12765,56.8085,62.48935,62.48935,79.5319,79.5319,79.5319,79.5319,85.21275,85.21275,90.8936,90.8936,96.57445,96.57445,96.57445,102.2553,102.2553,102.2553,107.9361,107.9361,,,,,,,,,,,,,,,,,,,,,,,,,,,,,,,,,,,,,,,,,,,,,,,,
5123,St. Francis,Arkansas,US,35.02202,-90.74828,"St. Francis, Arkansas, US",3.803149,3.803149,3.803149,3.803149,3.803149,38.03149,41.83464,102.685,110.2913,117.8976,117.8976,117.8976,121.7008,129.3071,171.1417,171.1417,239.5984,239.5984,243.4015,243.4015,247.2047,247.2047,251.0078,262.4173,281.433,285.2362,304.2519,308.0551,311.8582,315.6614,315.6614,319.4645,330.874,353.6929,361.2992,361.2992,,,,,,,,,,,,,,,,,,,,,,,,,,,,,,,,,,,,,,,,,,,,,,,,,,,,,
5125,Saline,Arkansas,US,34.64916,-92.67583,"Saline, Arkansas, US",0.847393,3.389572,3.389572,3.389572,3.389572,3.389572,3.389572,5.084358,5.084358,8.47393,11.01611,13.55829,16.10047,17.79525,22.87961,24.5744,27.96397,27.96397,26.26918,26.26918,27.11658,27.11658,27.11658,27.96397,28.81136,30.50615,31.35354,34.74311,36.4379,38.13268,38.13268,39.82747,43.21704,45.75922,45.75922,46.60661,47.45401,48.3014,49.99619,56.77533,56.77533,56.77533,57.62272,57.62272,56.77533,,,,,,,,,,,,,,,,,,,,,,,,,,,,,,,,,,,,,,,,,,,,
5127,Scott,Arkansas,US,34.85589,-94.06322,"Scott, Arkansas, US",9.576709,9.576709,9.576709,9.576709,9.576709,9.576709,9.576709,9.576709,9.576709,9.576709,9.576709,9.576709,9.576709,9.576709,9.576709,9.576709,9.576709,9.576709,9.576709,9.576709,9.576709,9.576709,9.576709,9.576709,9.576709,9.576709,9.576709,9.576709,9.576709,9.576709,9.576709,9.576709,9.576709,9.576709,9.576709,,,,,,,,,,,,,,,,,,,,,,,,,,,,,,,,,,,,,,,,,,,,,,,,,,,,,,
5131,Sebastian,Arkansas,US,35.19606,-94.27163,"Sebastian, Arkansas, US",0.7845537,0.7845537,0.7845537,1.569107,1.569107,1.569107,1.569107,1.569107,3.922769,5.491876,6.27643,6.27643,6.27643,6.27643,6.27643,6.27643,6.27643,7.060983,7.060983,7.060983,7.845537,7.845537,8.630091,8.630091,8.630091,8.630091,8.630091,8.630091,8.630091,8.630091,8.630091,8.630091,9.414644,9.414644,9.414644,9.414644,9.414644,9.414644,9.414644,10.1992,10.1992,10.1992,10.1992,10.1992,10.1992,,,,,,,,,,,,,,,,,,,,,,,,,,,,,,,,,,,,,,,,,,,,
5137,Stone,Arkansas,US,35.86252,-92.15684,"Stone, Arkansas, US",8.03471,8.03471,8.03471,8.03471,8.03471,8.03471,8.03471,8.03471,40.17355,40.17355,40.17355,40.17355,40.17355,40.17355,40.17355,40.17355,40.17355,56.24297,56.24297,56.24297,56.24297,56.24297,56.24297,56.24297,56.24297,56.24297,56.24297,56.24297,56.24297,56.24297,56.24297,56.24297,56.24297,56.24297,56.24297,56.24297,56.24297,56.24297,56.24297,56.24297,64.27768,64.27768,64.27768,64.27768,,,,,,,,,,,,,,,,,,,,,,,,,,,,,,,,,,,,,,,,,,,,,
5139,Union,Arkansas,US,33.16887,-92.59747,"Union, Arkansas, US",2.516863,2.516863,2.516863,2.516863,2.516863,2.516863,12.58431,12.58431,17.61804,20.1349,22.65177,25.16863,25.16863,25.16863,30.20236,30.20236,32.71922,32.71922,37.75294,40.26981,45.30353,45.30353,42.78667,42.78667,45.30353,47.8204,50.33726,57.88785,60.40471,65.43844,65.43844,65.43844,72.98903,75.50589,80.53962,83.05648,95.64079,108.2251,110.742,125.8431,135.9106,135.9106,151.0118,156.0455,156.0455,,,,,,,,,,,,,,,,,,,,,,,,,,,,,,,,,,,,,,,,,,,,
5141,Van Buren,Arkansas,US,35.58096,-92.51295,"Van Buren, Arkansas, US",5.993766,17.9813,29.96883,47.95013,65.93143,95.90026,101.894,101.894,119.8753,113.8816,119.8753,119.8753,119.8753,119.8753,125.8691,125.8691,125.8691,131.8629,155.8379,155.8379,155.8379,155.8379,155.8379,155.8379,155.8379,155.8379,155.8379,155.8379,155.8379,155.8379,155.8379,155.8379,155.8379,155.8379,161.8317,161.8317,161.8317,161.8317,167.8255,167.8255,167.8255,167.8255,167.8255,167.8255,167.8255,,,,,,,,,,,,,,,,,,,,,,,,,,,,,,,,,,,,,,,,,,,,
5143,Washington,Arkansas,US,35.97684,-94.21801,"Washington, Arkansas, US",0.4375812,0.4375812,0.4375812,0.4375812,0.8751625,2.187906,2.187906,2.625487,4.375812,5.688556,6.126137,6.126137,6.563718,8.314043,9.626787,10.06437,10.50195,10.93953,12.25227,12.68986,12.68986,13.12744,15.75292,16.19051,16.19051,16.19051,18.81599,18.81599,19.25357,19.25357,19.69116,19.69116,20.12874,23.62939,25.81729,26.25487,27.13004,31.06827,32.38101,33.69375,33.69375,33.69375,36.75682,37.63199,38.06957,38.06957,39.38231,39.81989,39.81989,,,,,,,,,,,,,,,,,,,,,,,,,,,,,,,,,,,,,,,,
5145,White,Arkansas,US,35.25688,-91.74908,"White, Arkansas, US",1.268971,1.268971,1.268971,1.268971,7.613827,7.613827,7.613827,7.613827,12.68971,13.95868,19.03457,29.18634,29.18634,31.72428,31.72428,34.26222,34.26222,34.26222,34.26222,35.53119,35.53119,35.53119,35.53119,35.53119,35.53119,36.80016,36.80016,36.80016,36.80016,36.80016,36.80016,36.80016,38.06913,39.3381,39.3381,39.3381,39.3381,41.87605,43.14502,43.14502,43.14502,44.41399,44.41399,44.41399,,,,,,,,,,,,,,,,,,,,,,,,,,,,,,,,,,,,,,,,,,,,,
5149,Yell,Arkansas,US,35.00292,-93.41171,"Yell, Arkansas, US",4.635424,4.635424,4.635424,4.635424,4.635424,4.635424,4.635424,4.635424,4.635424,4.635424,4.635424,4.635424,9.270848,9.270848,9.270848,9.270848,9.270848,9.270848,13.90627,13.90627,13.90627,13.90627,13.90627,13.90627,13.90627,13.90627,13.90627,18.5417,23.17712,27.81254,27.81254,,,,,,,,,,,,,,,,,,,,,,,,,,,,,,,,,,,,,,,,,,,,,,,,,,,,,,,,,,
6001,Alameda,California,US,37.64629,-121.8929,"Alameda, California, US",0.06083835,0.06083835,0.06083835,0.06083835,0.1216767,0.1216767,0.1216767,0.1825151,0.3041918,0.3041918,0.4258685,0.6692219,0.6692219,1.09509,1.642636,1.825151,2.311857,2.920241,4.137008,4.319523,7.178926,8.213178,8.213178,10.82923,13.38444,13.38444,16.42636,17.21725,19.0424,19.0424,21.84097,26.95139,26.95139,34.43451,35.77295,38.57152,41.00505,41.00505,46.60218,49.03571,51.40841,54.02446,54.02446,58.64817,61.26422,64.67117,67.77392,70.81584,72.58015,75.5004,75.56123,82.25345,85.35621,87.54639,89.43238,91.25753,93.26519,95.39454,97.52388,99.53154,103.7902,106.4063,108.0489,110.0566,,,,,,,,,,,,,,,,,,,,,,,,,
6005,Amador,California,US,38.44583,-120.657,"Amador, California, US",2.643475,2.643475,2.643475,5.286949,5.286949,5.286949,5.286949,5.286949,5.286949,5.286949,5.286949,5.286949,7.930424,7.930424,7.930424,7.930424,7.930424,7.930424,7.930424,18.50432,18.50432,18.50432,18.50432,18.50432,18.50432,18.50432,18.50432,18.50432,18.50432,18.50432,18.50432,21.1478,21.1478,21.1478,21.1478,21.1478,21.1478,21.1478,21.1478,21.1478,21.1478,21.1478,21.1478,21.1478,21.1478,,,,,,,,,,,,,,,,,,,,,,,,,,,,,,,,,,,,,,,,,,,,
6007,Butte,California,US,39.66728,-121.6005,"Butte, California, US",0.4403831,0.8807663,0.8807663,1.761533,2.201916,2.201916,2.201916,2.201916,2.201916,3.523065,3.523065,3.963448,4.403831,4.844214,4.844214,4.844214,5.284598,5.724981,5.724981,5.724981,6.165364,6.165364,6.165364,6.605747,7.04613,7.04613,7.04613,7.04613,7.04613,7.04613,7.04613,7.04613,7.04613,7.04613,7.04613,7.04613,7.04613,7.04613,7.04613,7.04613,7.04613,7.04613,7.04613,7.486513,7.486513,,,,,,,,,,,,,,,,,,,,,,,,,,,,,,,,,,,,,,,,,,,,
6009,Calaveras,California,US,38.20537,-120.5529,"Calaveras, California, US",4.421355,4.421355,4.421355,4.421355,4.421355,4.421355,4.421355,4.421355,4.421355,4.421355,4.421355,4.421355,4.421355,4.421355,4.421355,6.632033,6.632033,6.632033,6.632033,6.632033,6.632033,6.632033,6.632033,6.632033,8.84271,8.84271,11.05339,11.05339,11.05339,11.05339,17.68542,17.68542,17.68542,17.68542,19.8961,19.8961,24.31745,24.31745,26.52813,26.52813,26.52813,26.52813,26.52813,28.73881,28.73881,28.73881,28.73881,28.73881,28.73881,28.73881,28.73881,28.73881,28.73881,28.73881,28.73881,28.73881,,,,,,,,,,,,,,,,,,,,,,,,,,,,,,,,,
6013,Contra Costa,California,US,37.91923,-121.929,"Contra Costa, California, US",0.08824202,0.08824202,0.264726,0.264726,0.7941781,0.7941781,0.7941781,0.8824202,1.500114,2.20605,2.559018,2.559018,3.000229,3.441439,3.441439,3.617923,4.059133,4.500343,5.382763,6.265183,7.588813,9.530138,11.5597,12.97158,14.82466,14.82466,16.50126,18.70731,21.97226,22.0605,27.0903,27.0903,34.06142,36.79692,39.00297,40.76781,42.70914,45.09167,46.76827,47.56245,48.70959,48.70959,54.26884,55.68071,57.18083,60.44578,61.15172,62.38711,66.09327,67.32866,67.94635,69.35822,71.03482,72.09373,72.35845,74.29978,76.06462,78.62364,80.03551,82.41804,83.38871,83.56519,85.50651,,,,,,,,,,,,,,,,,,,,,,,,,,
6015,Del Norte,California,US,41.74228,-123.8974,"Del Norte, California, US",3.646441,7.292882,7.292882,7.292882,7.292882,7.292882,7.292882,7.292882,7.292882,7.292882,7.292882,7.292882,7.292882,7.292882,7.292882,7.292882,7.292882,7.292882,7.292882,7.292882,7.292882,7.292882,7.292882,10.93932,10.93932,10.93932,10.93932,10.93932,10.93932,10.93932,10.93932,10.93932,10.93932,,,,,,,,,,,,,,,,,,,,,,,,,,,,,,,,,,,,,,,,,,,,,,,,,,,,,,,,
6017,El Dorado,California,US,38.77966,-120.5233,"El Dorado, California, US",1.071461,1.071461,1.607192,1.607192,4.821575,6.428767,6.428767,6.428767,8.035958,9.64315,9.64315,10.17888,11.78607,11.78607,11.78607,11.78607,15.00046,15.53619,16.07192,17.14338,17.14338,17.14338,18.21484,18.75057,18.75057,19.2863,19.2863,19.2863,19.2863,20.35776,20.89349,21.42922,22.50068,22.50068,22.50068,22.50068,23.57214,23.57214,23.57214,25.17934,25.17934,25.17934,25.17934,28.39372,,,,,,,,,,,,,,,,,,,,,,,,,,,,,,,,,,,,,,,,,,,,,
6021,Glenn,California,US,39.59876,-122.3938,"Glenn, California, US",3.584615,3.584615,7.16923,7.16923,7.16923,7.16923,7.16923,7.16923,7.16923,7.16923,7.16923,7.16923,10.75384,10.75384,10.75384,10.75384,14.33846,14.33846,14.33846,14.33846,14.33846,14.33846,14.33846,14.33846,14.33846,17.92307,17.92307,17.92307,17.92307,17.92307,17.92307,17.92307,17.92307,17.92307,17.92307,17.92307,17.92307,17.92307,,,,,,,,,,,,,,,,,,,,,,,,,,,,,,,,,,,,,,,,,,,,,,,,,,,
6023,Humboldt,California,US,40.69923,-123.876,"Humboldt, California, US",0.7365506,0.7365506,0.7365506,0.7365506,0.7365506,0.7365506,0.7365506,0.7365506,0.7365506,0.7365506,0.7365506,0.7365506,0.7365506,0.7365506,0.7365506,0.7365506,0.7365506,0.7365506,0.7365506,0.7365506,0.7365506,0.7365506,0.7365506,0.7365506,0.7365506,0.7365506,0.7365506,0.7365506,0.7365506,0.7365506,1.473101,1.473101,2.946202,3.682753,7.365506,8.838607,10.31171,13.25791,13.25791,15.46756,19.88687,20.62342,27.25237,32.40823,32.40823,32.40823,36.09098,36.82753,36.82753,36.82753,36.82753,36.82753,36.82753,36.82753,37.56408,38.30063,38.30063,38.30063,38.30063,38.30063,38.30063,38.30063,38.30063,39.03718,39.03718,39.03718,39.03718,39.03718,39.77373,39.77373,39.77373,39.77373,39.77373,39.77373,39.77373,,,,,,,,,,,,,,
6025,Imperial,California,US,33.03931,-115.3669,"Imperial, California, US",1.109779,1.109779,1.109779,1.109779,1.109779,1.109779,1.109779,1.109779,2.219559,2.219559,3.329338,3.329338,3.329338,4.994007,4.994007,9.433125,11.65268,13.87224,13.87224,18.31136,21.08581,23.86026,28.85426,30.51893,31.62871,36.06783,37.7325,40.50695,41.61673,43.83629,43.83629,48.2754,48.2754,55.48897,64.92209,70.47099,79.34923,86.0079,86.0079,88.78235,97.1057,108.2035,128.7344,139.2773,139.2773,139.2773,155.924,157.5887,177.0098,177.0098,184.7783,198.6505,198.6505,204.1994,221.9559,,,,,,,,,,,,,,,,,,,,,,,,,,,,,,,,,,
6027,Inyo,California,US,36.51112,-117.4112,"Inyo, California, US",5.529444,11.05889,16.58833,27.64722,44.23555,44.23555,44.23555,49.765,49.765,55.29444,55.29444,60.82389,60.82389,60.82389,60.82389,60.82389,66.35333,66.35333,66.35333,66.35333,66.35333,94.00055,94.00055,94.00055,99.53,99.53,99.53,99.53,105.0594,105.0594,105.0594,105.0594,105.0594,105.0594,105.0594,105.0594,105.0594,105.0594,105.0594,105.0594,105.0594,105.0594,,,,,,,,,,,,,,,,,,,,,,,,,,,,,,,,,,,,,,,,,,,,,,,
6029,Kern,California,US,35.34329,-118.7278,"Kern, California, US",0.1132435,0.1132435,0.3397305,0.4529739,0.5662174,0.5662174,1.358922,1.472165,1.698652,3.284061,3.737035,5.322444,5.775418,6.794609,9.399209,12.45678,16.08058,19.59112,23.78113,26.046,27.06519,28.53736,30.68898,34.31278,38.16305,42.01333,44.84442,49.37416,52.31849,60.35878,63.98257,65.45473,69.07853,70.55069,72.81556,75.98638,77.3453,79.1572,83.23396,85.49883,91.61398,93.76561,95.91723,98.06886,101.1264,106.3356,109.7329,113.8097,115.0554,118.3394,,,,,,,,,,,,,,,,,,,,,,,,,,,,,,,,,,,,,,,
6031,Kings,California,US,36.07409,-119.816,"Kings, California, US",1.332667,1.332667,1.332667,1.999,2.665334,3.331668,3.331668,3.331668,3.331668,3.331668,3.331668,3.331668,5.330668,5.330668,5.997001,6.663335,6.663335,7.996002,8.662335,8.662335,11.994,13.32667,18.65734,19.99001,21.32267,21.32267,23.32167,31.31767,31.31767,34.64934,44.64434,47.30968,52.64035,63.96802,81.95902,97.28469,105.2807,114.6094,131.934,,,,,,,,,,,,,,,,,,,,,,,,,,,,,,,,,,,,,,,,,,,,,,,,,,
6033,Lake,California,US,39.10124,-122.7536,"Lake, California, US",1.558895,1.558895,3.11779,4.676685,6.23558,6.23558,6.23558,6.23558,6.23558,7.794475,9.35337,9.35337,9.35337,9.35337,9.35337,9.35337,9.35337,9.35337,9.35337,9.35337,9.35337,9.35337,9.35337,9.35337,9.35337,10.91227,10.91227,10.91227,10.91227,12.47116,,,,,,,,,,,,,,,,,,,,,,,,,,,,,,,,,,,,,,,,,,,,,,,,,,,,,,,,,,,
6037,Los Angeles,California,US,34.30828,-118.2282,"Los Angeles, California, US",0.0099029,0.0099029,0.0099029,0.0099029,0.0099029,0.0099029,0.0099029,0.0099029,0.0099029,0.0099029,0.0099029,0.0099029,0.0099029,0.0099029,0.0099029,0.0099029,0.0099029,0.0099029,0.0099029,0.0099029,0.0099029,0.0099029,0.0099029,0.0099029,0.0099029,0.0099029,0.0099029,0.0099029,0.0099029,0.0099029,0.0099029,0.0099029,0.0099029,0.0099029,0.0099029,0.0099029,0.0099029,0.0099029,0.0693203,0.1089319,0.1287377,0.1386406,0.1386406,0.1386406,0.198058,0.2673783,0.3168928,0.396116,0.5248537,0.5248537,0.9308726,1.426018,1.881551,2.28757,2.891647,2.891647,4.03048,5.307954,6.55572,8.041155,12.17066,14.50775,14.50775,18.1124,24.49977,29.89686,34.8384,40.05723,45.21664,45.60285,58.97177,63.15079,68.68651,74.85602,78.77757,83.61019,83.70921,88.07639,93.41406,99.49444,104.1488,107.4861,112.8931,119.0428,122.2117,136.8878,150.0586,162.873,173.6672
6039,Madera,California,US,37.21514,-119.7666,"Madera, California, US",0.6451072,0.6451072,0.6451072,0.6451072,0.6451072,0.6451072,0.6451072,0.6451072,0.6451072,0.6451072,0.6451072,0.6451072,0.6451072,1.935322,1.935322,1.935322,1.935322,3.870643,3.870643,4.51575,6.451072,7.096179,9.676608,11.61193,13.54725,14.83747,16.12768,18.063,18.063,18.063,18.063,18.063,18.063,18.063,19.35322,20.64343,20.64343,21.28854,21.28854,21.28854,21.28854,21.28854,21.28854,21.93364,21.93364,23.22386,23.22386,25.15918,25.15918,25.15918,25.80429,26.44939,28.38472,29.67493,29.67493,29.67493,29.67493,32.90047,32.90047,34.83579,,,,,,,,,,,,,,,,,,,,,,,,,,,,,
6041,Marin,California,US,38.07122,-122.7211,"Marin, California, US",0.3841795,0.3841795,1.152538,1.152538,1.920897,1.920897,3.457615,4.225974,5.762692,5.762692,14.59882,14.59882,14.59882,14.59882,18.05644,20.36151,23.05077,24.97167,26.12421,28.42928,35.72869,38.03377,41.10721,41.49138,45.33318,50.32751,52.63259,54.16931,54.93767,56.85856,57.24274,59.16364,59.16364,58.77946,63.00544,65.31051,65.69469,70.68903,71.84156,71.84156,72.60992,74.915,76.45172,76.8359,80.29351,81.44605,81.44605,85.67203,86.05621,86.05621,86.82456,90.28218,91.05054,91.8189,92.20308,92.20308,92.58726,,,,,,,,,,,,,,,,,,,,,,,,,,,,,,,,
6043,Mariposa,California,US,37.57979,-119.9073,"Mariposa, California, US",5.701254,5.701254,17.10376,74.11631,74.11631,74.11631,79.81756,79.81756,,,,,,,,,,,,,,,,,,,,,,,,,,,,,,,,,,,,,,,,,,,,,,,,,,,,,,,,,,,,,,,,,,,,,,,,,,,,,,,,,
6045,Mendocino,California,US,39.43812,-123.3911,"Mendocino, California, US",1.143877,1.143877,1.143877,1.143877,1.143877,2.287754,2.287754,2.287754,2.287754,2.287754,3.43163,4.575507,4.575507,4.575507,4.575507,4.575507,4.575507,4.575507,4.575507,4.575507,4.575507,4.575507,4.575507,4.575507,4.575507,4.575507,4.575507,4.575507,4.575507,4.575507,5.719384,5.719384,5.719384,5.719384,5.719384,5.719384,12.58265,12.58265,12.58265,12.58265,12.58265,13.72652,13.72652,13.72652,13.72652,13.72652,13.72652,13.72652,,,,,,,,,,,,,,,,,,,,,,,,,,,,,,,,,,,,,,,,,
6047,Merced,California,US,37.18922,-120.7209,"Merced, California, US",0.3716436,0.3716436,0.7432872,0.7432872,1.486574,2.601505,2.973149,3.344792,3.716436,3.716436,4.459723,5.946298,5.946298,10.03438,10.77766,10.77766,12.63588,14.86574,19.32547,21.92697,24.15683,24.15683,27.50163,28.24491,29.35984,30.47477,31.96135,33.44792,33.44792,34.19121,34.56285,37.16436,37.90765,37.90765,38.27929,40.13751,43.11066,43.85394,46.45545,49.80024,52.0301,52.0301,53.14503,54.63161,,,,,,,,,,,,,,,,,,,,,,,,,,,,,,,,,,,,,,,,,,,,,
6051,Mono,California,US,37.93899,-118.8872,"Mono, California, US",7.055171,7.055171,7.055171,7.055171,28.22069,28.22069,42.33103,56.44137,77.60689,91.71723,91.71723,91.71723,126.9931,126.9931,134.0483,134.0483,134.0483,134.0483,134.0483,141.1034,141.1034,148.1586,148.1586,162.2689,162.2689,162.2689,162.2689,162.2689,162.2689,162.2689,169.3241,169.3241,169.3241,169.3241,169.3241,169.3241,169.3241,169.3241,183.4345,183.4345,183.4345,183.4345,183.4345,183.4345,183.4345,183.4345,,,,,,,,,,,,,,,,,,,,,,,,,,,,,,,,,,,,,,,,,,,
6055,Napa,California,US,38.50736,-122.3328,"Napa, California, US",0.7115918,0.7115918,0.7115918,1.423184,1.423184,1.423184,4.269551,4.269551,6.404326,7.115918,9.962286,9.962286,10.67388,12.80865,12.80865,14.23184,14.23184,15.65502,15.65502,17.7898,17.7898,22.77094,22.77094,24.19412,24.19412,27.04049,27.04049,27.75208,31.31004,33.44482,33.44482,34.15641,34.15641,38.42596,40.56073,41.27233,42.69551,42.69551,45.54188,46.96506,47.67665,47.67665,48.38824,49.81143,49.81143,52.6578,53.36939,,,,,,,,,,,,,,,,,,,,,,,,,,,,,,,,,,,,,,,,,,
6057,Nevada,California,US,39.30395,-120.7627,"Nevada, California, US",1.009163,1.009163,1.009163,1.009163,1.009163,1.009163,1.009163,2.018326,3.02749,4.036653,7.064142,8.073306,12.10996,12.10996,17.15577,21.19243,26.23824,26.23824,30.2749,31.28406,31.28406,32.29322,32.29322,34.31155,34.31155,34.31155,34.31155,34.31155,34.31155,34.31155,34.31155,34.31155,34.31155,36.32988,36.32988,36.32988,38.3482,38.3482,36.32988,37.33904,37.33904,37.33904,37.33904,39.35736,41.37569,41.37569,41.37569,41.37569,41.37569,41.37569,41.37569,,,,,,,,,,,,,,,,,,,,,,,,,,,,,,,,,,,,,,
6059,Orange,California,US,33.70148,-117.7646,"Orange, California, US",0.03160375,0.03160375,0.03160375,0.03160375,0.03160375,0.03160375,0.03160375,0.03160375,0.03160375,0.03160375,0.03160375,0.03160375,0.03160375,0.03160375,0.03160375,0.03160375,0.03160375,0.03160375,0.03160375,0.03160375,0.03160375,0.03160375,0.03160375,0.03160375,0.03160375,0.03160375,0.03160375,0.03160375,0.03160375,0.03160375,0.03160375,0.03160375,0.03160375,0.03160375,0.03160375,0.03160375,0.03160375,0.03160375,0.09481123,0.09481123,0.09481123,0.09481123,0.09481123,0.126415,0.1580187,0.1580187,0.1896225,0.2844337,0.4424524,0.4424524,0.5372637,0.6952824,0.9165086,1.674998,2.054243,2.465092,3.002356,3.950468,4.803769,5.9099,8.090559,10.1448,12.73631,13.62121,14.66414,15.86508,19.15187,20.73206,22.47026,24.84054,26.35752,27.8745,29.42309,32.1094,34.10044,35.96506,38.58817,40.35798,40.5476,41.05326,43.48675,45.03534,47.43722,49.17543,51.70373,52.96788,53.44193,55.40136,57.74004
6061,Placer,California,US,39.06167,-120.7241,"Placer, California, US",0.2631046,0.2631046,0.5262092,0.5262092,1.315523,1.315523,1.315523,1.841732,1.841732,1.841732,1.841732,1.052418,1.841732,1.315523,1.315523,1.315523,2.367941,2.367941,2.367941,2.367941,3.157255,3.157255,5.262092,7.893137,7.893137,7.893137,10.78729,13.94454,13.94454,14.99696,20.52216,23.67941,25.52114,25.52114,27.09977,27.88909,27.88909,30.78324,30.78324,32.36186,32.36186,32.62497,33.41428,33.67739,33.94049,34.2036,34.2036,34.4667,34.7298,34.7298,34.99291,34.99291,35.78222,36.57154,36.57154,37.09775,37.62396,38.15016,38.15016,38.67637,39.46569,41.83363,41.83363,42.62294,42.62294,,,,,,,,,,,,,,,,,,,,,,,,
6063,Plumas,California,US,40.00356,-120.8395,"Plumas, California, US",5.34788,5.34788,5.34788,10.69576,16.04364,16.04364,16.04364,16.04364,16.04364,16.04364,21.39152,21.39152,21.39152,21.39152,21.39152,21.39152,21.39152,21.39152,21.39152,21.39152,21.39152,21.39152,21.39152,21.39152,21.39152,21.39152,21.39152,21.39152,21.39152,21.39152,21.39152,21.39152,21.39152,21.39152,21.39152,,,,,,,,,,,,,,,,,,,,,,,,,,,,,,,,,,,,,,,,,,,,,,,,,,,,,,
6065,Riverside,California,US,33.74315,-115.9934,"Riverside, California, US",0.04195887,0.04195887,0.1678355,0.2517533,0.335671,0.335671,0.5874243,0.5874243,0.6293831,0.6293831,0.671342,0.9230953,1.174849,1.174849,1.216807,1.930108,2.391656,2.853204,4.405682,6.251872,7.678474,8.181981,12.21003,15.56674,15.56674,20.68573,20.68573,26.76976,33.52514,39.6931,42.63022,49.46951,53.70736,56.64448,60.04315,67.93142,67.93142,82.28135,82.28135,88.32343,103.093,103.093,110.6875,119.4569,119.4569,124.1983,135.0237,139.0937,139.0937,149.4995,152.8562,156.7164,165.4019,169.1362,171.1503,171.1503,175.3881,182.6889,186.8848,,,,,,,,,,,,,,,,,,,,,,,,,,,,,,
6067,Sacramento,California,US,38.45107,-121.3425,"Sacramento, California, US",0.06622416,0.06622416,0.06622416,0.06622416,0.06622416,0.06622416,0.1324483,0.1324483,0.1324483,0.1324483,0.1324483,0.1324483,0.1324483,0.1324483,0.1324483,0.1324483,0.1324483,0.1324483,0.6622416,0.7284657,1.125811,1.125811,1.920501,1.920501,2.185397,2.648966,2.648966,2.980087,3.50988,3.50988,3.50988,5.827726,5.827726,7.48333,7.48333,10.86076,10.86076,10.86076,14.83421,14.83421,14.83421,20.79439,25.82742,25.82742,29.27108,30.59556,34.76768,38.41001,38.41001,43.24437,43.24437,46.82048,48.93965,54.03891,56.48921,58.21103,59.33684,60.52888,61.25735,62.25071,63.17785,64.30366,65.36324,67.48242,67.48242,68.67445,69.20424,69.73404,70.7274,71.32342,72.18433,73.31014,73.97238,74.63462,75.03197,,,,,,,,,,,,,,
6069,San Benito,California,US,36.60308,-121.07,"San Benito, California, US",3.366097,3.366097,3.366097,3.366097,3.366097,3.366097,3.366097,3.366097,3.366097,3.366097,3.366097,3.366097,3.366097,3.366097,3.366097,3.366097,3.366097,3.366097,3.366097,3.366097,3.366097,3.366097,3.366097,3.366097,3.366097,3.366097,3.366097,3.366097,3.366097,3.366097,3.366097,3.366097,3.366097,3.366097,3.366097,3.366097,3.366097,3.366097,3.366097,3.366097,5.049145,5.049145,5.049145,5.049145,5.049145,5.049145,8.415242,8.415242,8.415242,10.09829,10.09829,11.78134,15.14744,21.87963,23.56268,23.56268,23.56268,28.61182,35.34402,38.71011,38.71011,38.71011,38.71011,38.71011,38.71011,55.5406,55.5406,57.22364,58.90669,58.90669,58.90669,65.63889,65.63889,69.00498,74.05413,74.05413,74.05413,74.05413,74.05413,75.73718,79.10327,79.10327,79.10327,79.10327,79.10327,80.78632,84.15242,84.15242,85.83547
6071,San Bernardino,California,US,34.8406,-116.1775,"San Bernardino, California, US",0.04682935,0.0936587,0.140488,0.2341467,0.4214641,0.4682935,0.7960989,0.7960989,1.45171,1.779515,2.528785,2.528785,3.559031,3.559031,5.198058,5.853669,8.569771,11.89465,14.23612,16.53076,17.42052,17.46735,24.81955,25.61565,30.01761,34.1386,37.93177,37.93177,41.53763,45.75227,45.75227,46.64203,48.32789,57.08498,60.22254,65.84206,69.7289,69.7289,75.30159,78.01769,78.01769,81.10843,82.98161,85.55722,90.28698,96.3748,98.95041,102.1816,102.1816,102.1816,109.0656,,,,,,,,,,,,,,,,,,,,,,,,,,,,,,,,,,,,,,
6073,San Diego,California,US,33.03485,-116.7365,"San Diego, California, US",0.03027704,0.03027704,0.06055408,0.06055408,0.06055408,0.06055408,0.06055408,0.06055408,0.06055408,0.06055408,0.06055408,0.06055408,0.06055408,0.06055408,0.06055408,0.06055408,0.06055408,0.06055408,0.06055408,0.06055408,0.06055408,0.06055408,0.06055408,0.09083111,0.09083111,0.09083111,0.09083111,0.09083111,0.09083111,0.09083111,0.1513852,0.2422163,0.3027704,0.4844326,1.665237,1.665237,1.816622,2.422163,3.845184,3.845184,4.692941,6.085685,6.842611,7.205935,8.871172,10.32447,12.50442,14.65409,15.59267,18.25705,22.19307,25.70521,29.24762,33.66807,36.60494,40.14735,42.50896,44.02281,46.32387,49.29102,51.25903,53.31786,54.61978,55.92169,58.43468,60.9174,63.18818,65.33785,67.00308,68.66832,70.39411,75.4201,80.02221,85.56291,89.10532,89.10532,92.13303,95.10018,103.9108,103.9108,107.9074,112.3581,118.8979,118.8979,121.7137,,,,
6075,San Francisco,California,US,37.75215,-122.4386,"San Francisco, California, US",0.2298734,0.2298734,1.03443,1.03443,1.03443,1.609114,1.609114,2.068861,2.643544,3.218228,3.218228,4.597469,4.942279,5.861773,8.04557,8.73519,9.654684,12.41317,15.05671,17.47038,20.45874,25.63089,32.06734,35.40051,39.07848,42.98633,45.62988,49.88253,51.72152,57.12355,60.80152,65.28405,67.00811,71.49064,77.69722,83.21418,91.60456,98.50077,100.2248,109.9944,113.4425,116.4309,117.1205,121.603,130.683,132.9818,139.763,141.4871,141.717,149.6476,154.0152,155.6243,161.8309,163.6699,168.7271,171.2557,172.2901,175.0486,177.3474,184.1286,186.6572,198.6106,,,,,,,,,,,,,,,,,,,,,,,,,,,
6077,San Joaquin,California,US,37.93434,-121.273,"San Joaquin, California, US",0.1365725,0.1365725,0.8194348,1.09258,1.09258,1.09258,1.775442,1.912015,2.321732,3.414312,4.233747,4.233747,5.599471,6.965196,9.286928,9.696645,12.29152,12.70124,15.43269,16.79841,18.57386,20.62244,23.62704,24.58304,25.26591,26.08534,28.13393,29.63623,30.45566,32.36767,34.55283,35.09912,36.32828,40.01573,42.88375,46.57121,49.84895,50.66839,54.62899,56.67757,58.45302,61.32104,62.82334,66.51079,67.60337,68.9691,69.9251,72.11026,72.24684,73.74913,74.15885,76.07086,76.48058,77.84631,78.3926,78.93889,,,,,,,,,,,,,,,,,,,,,,,,,,,,,,,,,
6079,San Luis Obispo,California,US,35.38822,-120.4039,"San Luis Obispo, California, US",0.3552966,1.06589,1.06589,2.487076,4.618856,5.684745,7.461228,9.593008,9.593008,14.92246,16.34364,19.18602,20.9625,23.80487,23.80487,25.22606,28.42373,28.42373,31.6214,33.04258,33.04258,33.75318,33.75318,33.75318,35.17436,36.24025,36.95084,39.08262,40.50381,41.5697,41.5697,42.63559,44.41207,45.12267,46.54385,46.89915,46.89915,47.60974,47.60974,52.93919,57.91334,58.62394,58.97923,60.04512,61.46631,64.30868,65.37457,66.79576,69.63813,71.41461,71.76991,72.4805,,,,,,,,,,,,,,,,,,,,,,,,,,,,,,,,,,,,,
6081,San Mateo,California,US,37.42288,-122.3276,"San Mateo, California, US",0.1305594,0.2611188,0.2611188,0.2611188,0.2611188,0.2611188,0.2611188,0.2611188,1.044475,1.958391,2.611188,2.611188,4.1779,4.1779,5.352935,8.3558,10.44475,11.61978,13.05594,14.36153,15.27545,18.53943,21.02006,21.5423,25.45908,31.20369,35.77327,36.16495,40.34285,40.34285,50.65704,59.1434,63.45186,70.24095,72.46046,75.59388,76.89948,80.55514,82.64409,83.29689,85.12472,85.12472,91.52213,94.13331,97.52786,100.139,104.0558,109.4088,109.4088,120.1146,122.073,125.0759,126.1204,129.1232,133.04,133.04,141.0041,143.4848,148.3155,153.6684,156.2796,160.9797,160.9797,167.2466,171.6856,,,,,,,,,,,,,,,,,,,,,,,,
6083,Santa Barbara,California,US,34.65329,-120.0188,"Santa Barbara, California, US",0.2253582,0.4507164,0.4507164,1.802866,2.028224,2.028224,2.929657,4.056448,4.056448,5.408597,5.859313,7.211463,10.59184,14.42293,15.32436,19.83152,22.31046,25.01476,31.32479,34.25445,37.86018,39.21233,43.26878,49.12809,51.38167,54.76204,58.59313,59.49457,60.17064,64.00173,70.53712,75.26964,79.77681,84.05861,86.76291,88.79113,93.74901,96.67867,101.6366,103.6648,105.693,105.693,106.1437,106.5944,109.2987,109.2987,114.0313,114.0313,115.8341,115.8341,118.5384,,,,,,,,,,,,,,,,,,,,,,,,,,,,,,,,,,,,,,
6085,Santa Clara,California,US,37.23105,-121.697,"Santa Clara, California, US",0.05202372,0.05202372,0.05202372,0.1040474,0.1040474,0.1040474,0.1040474,0.1040474,0.1040474,0.1040474,0.1040474,0.1040474,0.1040474,0.1040474,0.1040474,0.1040474,0.1040474,0.1040474,0.1040474,0.1040474,0.1040474,0.1040474,0.1040474,0.1040474,0.1040474,0.1040474,0.1040474,0.1040474,0.1040474,0.1560712,0.1560712,0.4682135,0.572261,0.572261,1.040474,1.040474,1.664759,1.976901,1.976901,2.23702,2.497139,2.705234,4.109874,4.942254,4.734159,7.179274,8.063677,9.104151,9.832484,10.19665,13.68224,13.68224,15.71116,19.5089,23.87889,28.19686,29.86162,30.74602,33.60732,44.11612,46.30111,49.73468,53.01217,53.01217,59.72323,62.79263,62.79263,66.85048,71.79274,71.79274,75.01821,77.2032,81.46915,86.67152,86.67152,93.27854,95.35948,97.28436,97.28436,97.28436,99.9896,99.9896,102.0705,103.3711,104.9839,106.1284,108.4174,109.5099,110.3943
6087,Santa Cruz,California,US,37.0558,-122.0067,"Santa Cruz, California, US",0.7305536,0.7305536,1.461107,2.556938,2.556938,2.556938,3.287491,4.748598,4.748598,5.113875,5.479152,5.479152,5.479152,8.036089,8.036089,8.766643,9.13192,11.68886,12.41941,14.97635,16.07218,16.43746,17.89856,19.72495,20.82078,21.55133,25.2041,25.2041,27.76104,27.76104,27.76104,29.22214,29.22214,32.14436,33.24019,33.24019,35.06657,35.06657,35.79713,36.89296,37.98879,38.71934,39.44989,40.54572,41.64155,42.00683,42.00683,43.83321,45.29432,45.6596,46.39015,47.85126,48.21654,48.94709,50.04292,50.04292,50.4082,,,,,,,,,,,,,,,,,,,,,,,,,,,,,,,,
6093,Siskiyou,California,US,41.59199,-122.5407,"Siskiyou, California, US",4.593477,4.593477,4.593477,6.890216,6.890216,6.890216,6.890216,6.890216,9.186955,6.890216,6.890216,6.890216,6.890216,6.890216,6.890216,9.186955,9.186955,9.186955,9.186955,11.48369,11.48369,11.48369,11.48369,11.48369,11.48369,11.48369,11.48369,11.48369,11.48369,11.48369,11.48369,11.48369,11.48369,11.48369,11.48369,11.48369,11.48369,11.48369,11.48369,11.48369,11.48369,11.48369,11.48369,11.48369,11.48369,,,,,,,,,,,,,,,,,,,,,,,,,,,,,,,,,,,,,,,,,,,,
6095,Solano,California,US,38.26827,-121.9357,"Solano, California, US",0.6841037,1.368207,1.368207,1.368207,1.368207,1.368207,1.596242,1.596242,1.824277,1.824277,2.964449,2.964449,2.964449,3.192484,4.788726,5.47283,7.069072,7.753175,7.753175,7.753175,7.753175,9.805487,11.17369,12.31387,13.91011,16.64652,16.64652,16.64652,20.06704,22.57542,25.53987,26.22398,27.59218,27.59218,27.59218,30.78467,31.92484,32.15287,38.53784,38.53784,38.53784,41.04622,41.04622,41.27426,43.5546,45.37888,45.37888,45.37888,45.37888,56.78061,57.92078,59.97309,60.6572,60.6572,60.6572,60.88523,72.97106,,,,,,,,,,,,,,,,,,,,,,,,,,,,,,,,
6097,Sonoma,California,US,38.52746,-122.8863,"Sonoma, California, US",0.1994746,0.1994746,0.1994746,0.1994746,0.1994746,0.1994746,0.1994746,0.5984238,0.5984238,0.5984238,0.5984238,0.5984238,0.1994746,0.3989492,0.9973729,0.7978983,1.595797,1.196848,1.795271,4.388441,4.388441,5.784763,5.784763,6.782136,7.38056,8.776882,9.973729,11.56953,11.56953,14.56164,15.55902,18.15219,18.95009,20.94483,21.34378,22.14168,22.14168,23.93695,27.12854,28.32539,28.92381,28.92381,29.32276,30.32014,31.91593,32.51436,34.30963,35.90543,35.90543,36.1049,36.30437,38.29912,38.69807,43.28598,43.28598,43.48546,43.88441,44.28336,45.48021,46.2781,48.6718,49.4697,50.2676,51.26497,52.06287,,,,,,,,,,,,,,,,,,,,,,,,
6099,Stanislaus,California,US,37.55862,-120.9971,"Stanislaus, California, US",0.3708504,0.3708504,0.3708504,0.3708504,0.3708504,0.5562756,0.5562756,0.927126,0.927126,0.927126,0.927126,0.927126,1.483402,2.039677,2.225102,2.410528,3.152229,4.26478,5.377331,5.748181,6.119032,7.231583,8.158709,9.456686,10.75466,12.05264,13.16519,15.01944,16.68827,17.61539,19.0988,21.50932,22.43645,24.2907,27.07208,30.22431,32.82026,34.67451,38.19759,40.97897,41.9061,43.01865,43.76035,46.54173,48.95225,48.95225,53.03161,54.51501,57.85266,62.85915,62.85915,70.46158,70.46158,76.20976,76.20976,79.36199,,,,,,,,,,,,,,,,,,,,,,,,,,,,,,,,,
6101,Sutter,California,US,39.03418,-121.6946,"Sutter, California, US",2.086115,2.086115,3.129172,6.258344,6.258344,9.387517,10.43057,14.6028,14.6028,16.68892,16.68892,16.68892,16.68892,19.81809,20.86115,38.59312,38.59312,38.59312,38.59312,23.99032,25.03338,25.03338,25.03338,26.07644,26.07644,27.11949,27.11949,27.11949,45.89453,45.89453,45.89453,46.93758,46.93758,30.24866,31.29172,31.29172,32.33478,32.33478,32.33478,32.33478,32.33478,,,,,,,,,,,,,,,,,,,,,,,,,,,,,,,,,,,,,,,,,,,,,,,,
6107,Tulare,California,US,36.22027,-118.802,"Tulare, California, US",0.2171661,0.2171661,0.4343322,0.4343322,0.4343322,0.6514983,0.8686645,1.520163,1.520163,2.388827,2.605993,3.474658,3.691824,3.691824,3.90899,4.343322,5.211987,6.297817,7.600814,9.338143,9.772475,16.07029,17.59046,17.59046,25.19127,29.31743,34.09508,34.09508,36.48391,44.08472,44.08472,49.29671,57.33185,64.28117,76.44247,80.78579,82.95745,86.21495,89.25527,91.6441,91.6441,95.77026,98.37625,102.5024,106.6286,109.4517,115.5324,125.522,135.946,138.9863,147.673,156.3596,161.3544,164.3947,186.3285,,,,,,,,,,,,,,,,,,,,,,,,,,,,,,,,,,
6111,Ventura,California,US,34.44466,-119.0911,"Ventura, California, US",0.117909,0.117909,0.2358179,0.2358179,0.5895448,0.5895448,0.4716358,1.17909,1.17909,1.532816,2.24027,2.24027,2.947724,3.537269,4.126813,4.598449,5.895448,7.192446,9.786443,11.55508,12.85208,14.85653,17.56843,18.86543,20.86989,23.93552,26.05788,26.05788,28.65188,31.01006,32.30705,35.13687,35.13687,36.43387,37.02341,37.37714,43.03677,45.27704,46.69195,46.69195,49.75758,50.46503,50.46503,52.23367,54.82766,56.12466,56.12466,58.48284,58.60075,59.89775,60.95893,63.08129,64.14247,65.91111,66.73647,68.03347,70.15583,,,,,,,,,,,,,,,,,,,,,,,,,,,,,,,,
6113,Yolo,California,US,38.68279,-121.9018,"Yolo, California, US",0.465166,0.465166,0.465166,0.465166,0.465166,0.465166,0.465166,0.465166,0.9303321,0.9303321,0.9303321,1.860664,1.860664,2.32583,2.32583,2.790996,2.790996,2.790996,3.721328,4.65166,5.116826,6.047159,7.442657,7.442657,7.442657,11.16398,11.62915,13.02465,15.35048,17.21114,17.21114,17.21114,23.2583,26.0493,31.16612,33.02679,34.88745,40.93461,43.26044,46.98177,47.44694,53.95926,58.14576,58.61092,63.72775,63.72775,66.05358,67.91424,70.24007,73.03107,73.03107,74.89173,74.89173,75.3569,75.82206,76.28723,78.61306,78.61306,79.54339,79.54339,79.54339,,,,,,,,,,,,,,,,,,,,,,,,,,,,
6115,Yuba,California,US,39.26256,-121.3536,"Yuba, California, US",2.649252,3.973878,3.973878,3.973878,3.973878,3.973878,3.973878,5.298504,7.947757,9.272383,10.59701,10.59701,11.92164,11.92164,14.57089,14.57089,17.22014,19.86939,19.86939,19.86939,19.86939,19.86939,19.86939,19.86939,19.86939,19.86939,19.86939,21.19402,21.19402,21.19402,21.19402,21.19402,21.19402,21.19402,21.19402,21.19402,21.19402,22.51864,23.84327,25.1679,25.1679,25.1679,25.1679,25.1679,,,,,,,,,,,,,,,,,,,,,,,,,,,,,,,,,,,,,,,,,,,,,
8001,Adams,Colorado,US,39.87432,-104.3363,"Adams, Colorado, US",0.4023214,0.6034821,1.206964,1.206964,1.206964,1.206964,2.011607,2.011607,2.413928,2.81625,3.620893,3.620893,5.029017,5.431339,10.05803,10.05803,14.28241,22.12768,22.12768,36.41009,36.41009,42.64607,52.30178,59.14124,71.21089,73.82598,78.05035,83.88401,83.88401,95.55133,109.2303,130.151,139.4044,146.0427,146.0427,152.4798,161.9344,172.9982,184.062,184.062,200.3561,207.799,217.6559,251.8532,261.9112,271.1646,279.8145,287.6598,299.7294,318.8397,334.9326,348.008,358.066,365.1067,378.7856,,,,,,,,,,,,,,,,,,,,,,,,,,,,,,,,,,
8003,Alamosa,Colorado,US,37.57251,-105.7885,"Alamosa, Colorado, US",6.081245,6.081245,6.081245,6.081245,6.081245,24.32498,24.32498,24.32498,24.32498,24.32498,24.32498,30.40623,30.40623,30.40623,42.56872,42.56872,42.56872,42.56872,42.56872,42.56872,42.56872,42.56872,42.56872,42.56872,54.73121,54.73121,54.73121,60.81245,60.81245,60.81245,60.81245,60.81245,60.81245,60.81245,60.81245,66.8937,72.97495,85.13744,85.13744,,,,,,,,,,,,,,,,,,,,,,,,,,,,,,,,,,,,,,,,,,,,,,,,,,
8005,Arapahoe,Colorado,US,39.64977,-104.3354,"Arapahoe, Colorado, US",0.314134,0.471201,0.471201,1.099469,1.57067,1.57067,2.356005,2.356005,3.455474,3.455474,4.554943,6.28268,7.068015,9.109886,9.109886,10.83762,18.69097,18.69097,24.34538,37.85315,37.85315,52.30331,52.30331,59.84252,69.26654,78.5335,95.49673,102.4077,112.7741,119.9992,119.9992,137.7478,146.2294,170.1036,179.3705,185.8103,185.8103,195.2343,210.7839,222.8781,241.2549,241.2549,259.0035,269.684,286.4902,318.846,327.1705,339.2647,353.7149,363.1389,375.233,388.2696,401.6203,412.3009,425.0233,433.1908,452.8241,,,,,,,,,,,,,,,,,,,,,,,,,,,,,,,,
8007,Archuleta,Colorado,US,37.19474,-107.0477,"Archuleta, Colorado, US",7.747134,7.747134,7.747134,7.747134,7.747134,7.747134,46.4828,46.4828,46.4828,46.4828,46.4828,46.4828,46.4828,46.4828,46.4828,46.4828,46.4828,46.4828,46.4828,54.22993,54.22993,54.22993,69.7242,61.97707,61.97707,61.97707,61.97707,61.97707,61.97707,61.97707,61.97707,61.97707,61.97707,61.97707,61.97707,61.97707,,,,,,,,,,,,,,,,,,,,,,,,,,,,,,,,,,,,,,,,,,,,,,,,,,,,,
8009,Baca,Colorado,US,37.31941,-102.5603,"Baca, Colorado, US",28.06624,28.06624,28.06624,28.06624,84.19871,84.19871,84.19871,252.5961,252.5961,252.5961,252.5961,252.5961,252.5961,252.5961,252.5961,252.5961,280.6624,280.6624,280.6624,280.6624,280.6624,280.6624,280.6624,280.6624,280.6624,280.6624,280.6624,280.6624,280.6624,280.6624,280.6624,280.6624,280.6624,280.6624,280.6624,280.6624,280.6624,336.7948,336.7948,336.7948,,,,,,,,,,,,,,,,,,,,,,,,,,,,,,,,,,,,,,,,,,,,,,,,,
8013,Boulder,Colorado,US,40.09314,-105.3547,"Boulder, Colorado, US",0.3114974,2.180482,3.426471,3.426471,3.426471,4.983958,9.344921,11.5254,12.1484,12.1484,15.26337,20.55883,20.55883,23.6738,28.03476,28.03476,33.33022,33.33022,35.5107,41.11765,44.54412,55.13503,58.873,64.16846,64.47996,64.47996,67.59493,72.89038,82.23531,88.46525,91.26873,93.13771,93.44921,97.18718,101.8596,109.6471,109.6471,121.484,129.8944,132.6979,146.4038,154.8142,155.7487,160.4211,169.1431,175.996,180.6685,192.5054,201.2273,205.8998,211.5067,213.3757,,,,,,,,,,,,,,,,,,,,,,,,,,,,,,,,,,,,,
8014,Broomfield,Colorado,US,39.95999,-105.0566,"Broomfield, Colorado, US",3.024803,1.512402,1.512402,1.512402,3.024803,7.562008,15.12402,15.12402,19.66122,25.71083,25.71083,30.24803,30.24803,31.76044,45.37205,54.44646,75.62008,75.62008,75.62008,78.64489,78.64489,92.2565,102.8433,122.5045,122.5045,133.0913,133.0913,139.141,143.6782,148.2154,152.7526,152.7526,160.3146,166.3642,170.9014,190.5626,204.1742,210.2238,213.2486,219.2982,222.323,226.8603,237.4471,246.5215,249.5463,252.5711,269.2075,,,,,,,,,,,,,,,,,,,,,,,,,,,,,,,,,,,,,,,,,,
8015,Chaffee,Colorado,US,38.74746,-106.1927,"Chaffee, Colorado, US",10.43623,15.65435,15.65435,15.65435,15.65435,26.09059,26.09059,26.09059,78.27176,78.27176,88.70799,88.70799,88.70799,93.92611,99.14423,114.7986,114.7986,114.7986,120.0167,120.0167,135.671,140.8892,146.1073,146.1073,146.1073,146.1073,161.7616,182.6341,182.6341,198.2885,198.2885,198.2885,286.9965,286.9965,344.3957,344.3957,344.3957,344.3957,344.3957,344.3957,344.3957,349.6139,349.6139,349.6139,349.6139,354.832,,,,,,,,,,,,,,,,,,,,,,,,,,,,,,,,,,,,,,,,,,,
8029,Delta,Colorado,US,38.86246,-107.8631,"Delta, Colorado, US",3.295327,3.295327,3.295327,6.590654,3.295327,3.295327,3.295327,3.295327,3.295327,3.295327,13.18131,13.18131,16.47664,16.47664,16.47664,16.47664,19.77196,19.77196,19.77196,23.06729,39.54393,39.54393,39.54393,42.83925,52.72524,72.4972,72.4972,82.38318,82.38318,82.38318,85.67851,85.67851,88.97384,108.7458,112.0411,141.6991,144.9944,151.5851,158.1757,164.7664,168.0617,171.357,,,,,,,,,,,,,,,,,,,,,,,,,,,,,,,,,,,,,,,,,,,,,,,
8031,Denver,Colorado,US,39.76018,-104.8726,"Denver, Colorado, US",0.2884267,0.2884267,0.2884267,0.2884267,0.4326401,0.8652802,1.442134,2.1632,3.028481,3.028481,3.605334,5.480108,6.201175,6.201175,9.662296,13.9887,18.02667,21.34358,21.34358,30.86166,37.7839,37.7839,44.99457,58.83905,58.83905,77.731,77.731,84.50903,92.72919,103.2568,118.976,122.1487,127.4846,133.6858,133.6858,148.684,160.5095,179.8341,194.1112,202.1871,202.1871,211.7052,223.3865,235.9331,257.2766,257.2766,289.0036,298.6659,313.2314,343.9489,358.6586,372.5031,386.7802,402.4995,416.7766,432.7843,445.9077,464.6555,482.3937,494.3634,511.3806,,,,,,,,,,,,,,,,,,,,,,,,,,,,
8035,Douglas,Colorado,US,39.33134,-104.93,"Douglas, Colorado, US",0.9129252,0.9129252,0.9129252,0.9129252,0.9129252,0.9129252,1.217234,1.217234,1.217234,2.434467,2.434467,3.347392,3.347392,5.173243,8.216327,10.04218,14.6068,14.6068,16.12835,20.38866,20.38866,24.04036,31.03946,31.03946,42.90748,42.90748,48.08073,52.03674,59.03583,67.86077,69.07801,70.59955,74.25125,74.25125,82.16327,85.81497,90.6839,92.50975,94.63991,94.63991,94.94422,100.1175,107.4209,111.9855,111.9855,116.8544,119.2889,121.4191,125.9837,129.3311,133.5914,136.6345,137.8517,142.4163,145.4594,152.7628,157.6318,160.0662,161.5878,165.2395,,,,,,,,,,,,,,,,,,,,,,,,,,,,,
8037,Eagle,Colorado,US,39.62754,-106.6934,"Eagle, Colorado, US",3.679379,7.358758,12.87783,25.75565,36.79379,36.79379,44.15255,62.54944,71.74789,71.74789,112.2211,136.137,147.1752,169.2514,169.2514,220.7627,270.4344,270.4344,312.7472,344.0219,344.0219,417.6095,417.6095,542.7084,577.6625,612.6166,623.6547,653.0898,684.3645,688.0439,688.0439,724.8376,783.7077,831.5396,840.7381,860.9747,860.9747,883.0509,881.2113,886.7303,892.2494,892.2494,895.9288,897.7685,899.6081,930.8829,941.921,980.5545,984.2339,993.4323,1004.47,1011.829,1011.829,1004.47,1013.669,1015.509,1006.31,,,,,,,,,,,,,,,,,,,,,,,,,,,,,,,,
8041,El Paso,Colorado,US,38.8324,-104.5251,"El Paso, Colorado, US",0.1453165,0.1453165,0.1453165,0.1453165,0.1453165,0.1453165,0.290633,0.4359496,0.4359496,0.5812661,0.5812661,1.162532,1.162532,3.923546,5.376711,7.411143,10.02684,10.02684,17.72862,19.90836,19.90836,23.25064,31.09774,31.09774,41.56053,41.56053,45.62939,49.40762,54.34838,63.21269,64.08459,66.40965,68.5894,68.5894,77.59902,79.92409,89.07903,93.14789,94.74637,94.74637,97.07144,100.1231,102.8841,106.2264,106.2264,108.1155,112.475,115.9626,123.955,125.2628,125.9894,127.7332,128.4598,131.8021,135.435,140.0851,143.5727,144.4446,146.0431,149.3854,,,,,,,,,,,,,,,,,,,,,,,,,,,,,
8043,Fremont,Colorado,US,38.47362,-105.44,"Fremont, Colorado, US",2.127569,2.127569,2.127569,2.127569,2.127569,2.127569,4.255138,4.255138,4.255138,4.255138,4.255138,6.382707,6.382707,8.510276,8.510276,8.510276,10.63785,10.63785,14.89298,17.02055,17.02055,17.02055,19.14812,19.14812,19.14812,21.27569,21.27569,23.40326,40.42381,40.42381,40.42381,42.55138,46.80652,46.80652,46.80652,46.80652,46.80652,46.80652,46.80652,46.80652,46.80652,46.80652,,,,,,,,,,,,,,,,,,,,,,,,,,,,,,,,,,,,,,,,,,,,,,,
8045,Garfield,Colorado,US,39.59922,-107.9027,"Garfield, Colorado, US",1.708292,1.708292,3.416584,3.416584,6.833168,11.95804,13.66634,13.66634,13.66634,17.08292,27.33267,27.33267,27.33267,42.7073,42.7073,56.37364,56.37364,58.08193,73.45656,76.87314,78.58143,80.28973,81.99802,83.70631,83.70631,85.4146,88.83119,93.95606,99.08094,100.7892,100.7892,105.9141,109.3307,111.039,119.5804,119.5804,121.2887,121.2887,126.4136,138.3717,141.7882,148.6214,150.3297,152.038,155.4546,158.8712,158.8712,162.2877,165.7043,165.7043,169.1209,,,,,,,,,,,,,,,,,,,,,,,,,,,,,,,,,,,,,,
8049,Grand,Colorado,US,40.10603,-106.1178,"Grand, Colorado, US",6.637462,6.637462,19.91239,13.27492,13.27492,13.27492,13.27492,13.27492,13.27492,13.27492,13.27492,13.27492,13.27492,26.54985,26.54985,26.54985,26.54985,26.54985,26.54985,26.54985,26.54985,26.54985,26.54985,26.54985,26.54985,26.54985,26.54985,26.54985,26.54985,26.54985,26.54985,26.54985,26.54985,26.54985,33.18731,33.18731,33.18731,33.18731,33.18731,33.18731,33.18731,33.18731,33.18731,33.18731,33.18731,33.18731,33.18731,33.18731,33.18731,,,,,,,,,,,,,,,,,,,,,,,,,,,,,,,,,,,,,,,,
8051,Gunnison,Colorado,US,38.66612,-107.0321,"Gunnison, Colorado, US",6.047046,30.23523,18.14114,24.18818,36.28228,36.28228,48.37637,48.37637,66.51751,66.51751,78.6116,108.8468,133.035,169.3173,169.3173,241.8818,344.6816,344.6816,399.105,477.7166,477.7166,495.8578,495.8578,507.9519,520.046,532.14,562.3753,574.4694,574.4694,592.6105,592.6105,598.6576,610.7516,610.7516,598.6576,598.6576,598.6576,628.8928,671.2221,677.2692,689.3632,689.3632,731.6926,731.6926,731.6926,743.7867,913.1039,955.4333,955.4333,973.5744,973.5744,1003.81,1003.81,997.7626,997.7626,1015.904,1015.904,,,,,,,,,,,,,,,,,,,,,,,,,,,,,,,,
